City_ID,City,Lat,Lng,Max Temp,Humidity,Cloudiness,Wind Speed,Country,Date
0,Cap-Chat,49.1001,-66.6821,-3.0,93,100,2.06,CA,1680569828
1,Hualmay,-11.0964,-77.6139,25.19,79,95,4.6,PE,1680570083
2,Mataura,-46.1927,168.8643,14.71,51,43,2.07,NZ,1680570091
3,Utmanzai,34.188,71.7629,14.34,91,15,1.46,PK,1680570093
4,Puerto Ayora,-0.7393,-90.3518,27.53,91,21,1.34,EC,1680569983
5,Rawson,-43.3002,-65.1023,16.05,59,1,6.3,AR,1680570095
6,Palmer,42.1584,-72.3287,9.75,58,75,8.23,US,1680569998
7,Kushima,31.4583,131.2333,19.38,50,86,5.48,JP,1680570096
8,Punta Arenas,-53.15,-70.9167,8.06,61,40,9.26,CL,1680570097
9,Comodoro Rivadavia,-45.8667,-67.5,17.92,32,0,2.06,AR,1680570098
10,Fortuna,40.5982,-124.1573,9.43,74,35,3.58,US,1680570099
11,Tezu,27.9167,96.1667,18.87,66,98,1.15,IN,1680569738
12,Tagusao,9.1924,117.8141,27.75,72,100,0.89,PH,1680570101
13,Hopelchén,19.7667,-89.85,30.91,35,9,3.86,MX,1680570101
14,San Rafael,-34.6177,-68.3301,20.5,47,100,1.9,AR,1680570102
15,Saint-Philippe,-21.3585,55.7679,23.77,80,95,3.27,RE,1680570103
16,San Patricio,28.017,-97.5169,27.31,79,100,7.51,US,1680570104
17,Saint Anthony,45.0205,-93.218,3.83,72,100,1.34,US,1680569996
18,Saint Paul Harbor,57.79,-152.4072,1.73,93,100,4.63,US,1680570106
19,Ta Khmau,11.4833,104.95,28.03,89,20,3.09,KH,1680570106
20,Santiago,-33.4569,-70.6483,22.7,47,0,2.57,CL,1680569494
21,Avarua,-21.2078,-159.775,27.03,61,20,5.66,CK,1680570108
22,Lang Son,21.8333,106.7333,24.73,80,92,3.37,VN,1680570109
23,Hengyang,26.8881,112.615,21.75,85,98,1.53,CN,1680570110
24,Busselton,-33.65,115.3333,18.19,66,66,4.41,AU,1680570111
25,Suhaia,43.7333,25.25,7.54,88,100,11.4,RO,1680570112
26,Sarkand,45.41,79.9186,4.83,31,0,1.88,KZ,1680570112
27,Goderich,43.7501,-81.7165,11.18,50,100,3.6,CA,1680570113
28,Yellowknife,62.456,-114.3525,-8.71,73,100,2.06,CA,1680570114
29,Ribeira Grande,38.5167,-28.7,12.65,82,100,1.79,PT,1680570115
30,Dauriya,49.9333,116.8667,-3.69,28,1,8.69,RU,1680570116
31,Río Gallegos,-51.6226,-69.2181,11.03,54,0,6.69,AR,1680570096
32,Rikitea,-23.1203,-134.9692,26.74,81,97,6.68,PF,1680570117
33,Hobyo,5.3505,48.5268,28.06,68,10,5.03,SO,1680570118
34,Barstow,34.8986,-117.0228,9.55,27,3,15.73,US,1680570119
35,Cape Town,-33.9258,18.4232,18.54,83,0,0.51,ZA,1680569925
36,Ushuaia,-54.8,-68.3,7.81,87,75,14.92,AR,1680569943
37,Barrow,71.2906,-156.7887,-15.99,78,100,6.69,US,1680570121
38,Vila Franca do Campo,37.7167,-25.4333,13.23,79,66,2.07,PT,1680570122
39,Saurimo,-9.6608,20.3916,18.62,96,100,0.73,AO,1680570123
40,Bengkulu,-3.8004,102.2655,25.02,87,97,1.19,ID,1680570124
41,Kapaa,22.0752,-159.319,26.18,86,100,4.63,US,1680570125
42,Necochea,-38.5473,-58.7368,15.44,89,43,3.75,AR,1680570126
43,Arsk,56.0915,49.8778,5.01,79,4,3.21,RU,1680570128
44,Kuybyshevskiy Zaton,55.1593,49.1701,4.26,73,71,1.92,RU,1680570129
45,Karratha,-20.7377,116.8463,29.44,62,57,2.23,AU,1680570130
46,Bandiagara,14.3501,-3.6104,27.32,8,2,3.5,ML,1680570131
47,Vaini,-21.2,-175.2,29.09,70,20,4.12,TO,1680570132
48,Cherskiy,68.75,161.3,-14.66,72,100,7.16,RU,1680570132
49,Marawi,7.9986,124.2928,24.41,62,51,1.78,PH,1680570133
50,Nador,35.174,-2.9287,14.14,77,0,0.0,MA,1680570135
51,Qaanaaq,77.484,-69.3632,-23.35,63,0,3.13,GL,1680570135
52,Hobart,-42.8794,147.3294,19.47,58,20,4.63,AU,1680569926
53,Butaritari,3.0707,172.7902,27.67,81,92,8.4,KI,1680570140
54,Saskylakh,71.9167,114.0833,-22.45,96,97,5.59,RU,1680570152
55,Tambopata,-12.7333,-69.1833,22.59,98,100,1.07,PE,1680570156
56,Naze,28.3667,129.4833,19.51,61,100,9.63,JP,1680570157
57,Faya,18.3851,42.4509,13.29,69,60,0.9,SA,1680570158
58,Atuona,-9.8,-139.0333,27.21,77,74,5.98,PF,1680570158
59,New Norfolk,-42.7826,147.0587,19.28,56,23,1.79,AU,1680570159
60,Airai,-8.9266,125.4092,21.64,62,86,1.0,TL,1680570160
61,Grand Gaube,-20.0064,57.6608,25.22,80,89,0.45,MU,1680570161
62,Hermanus,-34.4187,19.2345,16.3,81,100,2.05,ZA,1680570161
63,Jönköping,57.7814,14.1562,-5.16,93,100,1.03,SE,1680570039
64,Idenao,4.2475,9.0047,25.45,90,100,0.46,CM,1680570163
65,Carnarvon,-24.8667,113.6333,24.43,70,47,6.13,AU,1680570164
66,Cidreira,-30.1811,-50.2056,22.41,78,25,6.4,BR,1680570081
67,Bossier City,32.516,-93.7321,28.1,68,0,5.66,US,1680570006
68,Kaitangata,-46.2817,169.8464,18.29,54,30,3.07,NZ,1680570166
69,Alice Springs,-23.7,133.8833,26.75,28,16,5.14,AU,1680570167
70,Vertientes,21.2594,-78.1464,25.31,62,83,5.28,CU,1680570169
71,Santa Inês,-3.6667,-45.38,22.46,99,99,1.35,BR,1680570108
72,Quatre Cocos,-20.2078,57.7625,25.06,84,97,3.17,MU,1680570170
73,Montepuez,-13.1256,38.9997,18.69,99,34,1.59,MZ,1680570171
74,Tasiilaq,65.6145,-37.6368,-3.91,90,100,0.89,GL,1680570172
75,Hilo,19.7297,-155.09,25.69,76,72,2.68,US,1680570173
76,Mount Gambier,-37.8333,140.7667,18.94,56,100,1.51,AU,1680570173
77,Tuktoyaktuk,69.4541,-133.0374,-18.0,78,20,2.57,CA,1680570175
78,Pak Phanang,8.3511,100.202,26.01,72,23,2.33,TH,1680570176
79,Port Alfred,-33.5906,26.891,17.32,81,100,2.24,ZA,1680570177
80,Bay Roberts,47.5999,-53.2648,-0.37,80,9,3.13,CA,1680570178
81,San Jose,37.3394,-121.895,13.6,46,20,9.26,US,1680569470
82,Show Low,34.2542,-110.0298,14.16,24,0,15.43,US,1680569996
83,Mandalī,33.7499,45.5541,15.75,56,0,3.84,IQ,1680570180
84,Utiel,39.5667,-1.2,6.63,56,100,1.28,ES,1680570181
85,Mersing,2.4312,103.8405,23.95,100,20,2.06,MY,1680570182
86,Margate,51.3813,1.3862,7.17,66,14,2.68,GB,1680570183
87,Hamilton,39.1834,-84.5333,19.35,59,0,3.09,US,1680570184
88,Mar del Plata,-38.0023,-57.5575,16.64,85,35,0.0,AR,1680569925
89,Departamento de Maldonado,-34.6667,-54.9167,18.66,88,100,0.19,UY,1680570187
90,Vila Velha,-20.3297,-40.2925,24.97,74,0,3.09,BR,1680569998
91,Okhotsk,59.3833,143.3,-7.56,90,100,6.91,RU,1680570188
92,Alofi,-19.0595,-169.9187,26.94,83,35,6.17,NU,1680570189
93,Valdivia,-39.8142,-73.2459,13.05,80,1,0.89,CL,1680570190
94,Fort-Shevchenko,44.5086,50.263,8.39,78,100,0.92,KZ,1680570191
95,Tarakan,3.3,117.6333,26.72,83,40,2.06,ID,1680569997
96,Kidal,18.4411,1.4078,25.65,8,0,3.85,ML,1680570193
97,Spasskoye,44.6108,132.7969,10.44,39,100,3.24,RU,1680570197
98,Albany,42.6001,-73.9662,12.66,57,100,4.5,US,1680570001
99,Saint-Pierre,-21.3393,55.4781,23.82,78,0,1.54,RE,1680570086
100,Matagami,49.7502,-77.6328,-5.94,79,100,8.75,CA,1680570201
101,Arraial do Cabo,-22.9661,-42.0278,21.98,83,75,1.54,BR,1680570206
102,Hithadhoo,-0.6,73.0833,27.79,69,10,2.54,MV,1680570213
103,Wajima,37.4,136.9,14.38,62,75,2.06,JP,1680570216
104,Jalu,29.0331,21.5482,15.49,43,0,3.21,LY,1680570217
105,Menongue,-14.6585,17.691,15.87,92,64,0.98,AO,1680570218
106,Vila,42.0304,-8.1588,7.49,73,100,2.16,PT,1680570219
107,Ibb,13.9667,44.1833,17.0,79,99,0.65,YE,1680570220
108,Turbat,26.0023,63.044,21.4,52,0,0.89,PK,1680570221
109,Dębno,52.739,14.698,-1.79,83,6,2.33,PL,1680570221
110,Kenai,60.5544,-151.2583,0.64,76,0,2.06,US,1680570222
111,Ahipara,-35.1667,173.1667,19.93,53,0,5.47,NZ,1680570223
112,Nikolskoye,59.7035,30.7861,-1.06,96,100,2.94,RU,1680570224
113,Kavaratti,10.5669,72.642,27.38,70,100,3.59,IN,1680570225
114,Bredasdorp,-34.5322,20.0403,15.27,84,100,1.01,ZA,1680570039
115,Sokolo,14.7328,-6.1219,28.35,8,3,4.23,ML,1680570226
116,Dauphin,51.1494,-100.0502,-9.73,89,100,2.35,CA,1680570152
117,Bambous Virieux,-20.3428,57.7575,25.14,88,40,1.54,MU,1680570228
118,Kholtoson,50.2981,103.3097,-7.52,45,1,1.23,RU,1680570229
119,Guerrero Negro,27.9769,-114.0611,14.77,68,3,11.21,MX,1680570229
120,Chany,55.3121,76.7647,-4.09,81,9,3.15,RU,1680570230
121,Kindu,-2.95,25.95,20.69,99,100,0.36,CD,1680570233
122,Katobu,-4.9408,122.5276,27.11,81,100,0.91,ID,1680570233
123,Benguela,-12.5763,13.4055,25.85,85,100,2.39,AO,1680570234
124,Kailua,21.4022,-157.7394,27.17,73,3,3.13,US,1680570235
125,Bethel,41.3712,-73.414,9.92,71,14,0.89,US,1680570078
126,Esperance,-33.8667,121.9,20.07,75,100,3.47,AU,1680570236
127,Morro Bay,35.3658,-120.8499,14.21,59,4,8.49,US,1680570014
128,Kingsland,30.8,-81.6898,23.96,94,100,0.99,US,1680570238
129,Luanda,-8.8368,13.2343,26.0,73,0,2.06,AO,1680569796
130,Hanoi,21.0245,105.8412,25.0,82,97,2.35,VN,1680570186
131,Narsaq,60.9167,-46.05,6.12,78,96,2.65,GL,1680570212
132,Ferme-Neuve,46.7001,-75.4493,1.62,94,100,3.31,CA,1680570242
133,Kālikāpur,22.6167,86.2833,21.94,31,2,1.44,IN,1680570243
134,Saint George,37.1041,-113.5841,4.68,74,100,7.72,US,1680570070
135,Humboldt,40.6665,-123.9178,3.99,87,57,3.24,US,1680570244
136,Varnavino,57.4035,45.0916,3.28,93,100,2.11,RU,1680570246
137,Ponta do Sol,32.6667,-17.1,17.35,60,15,5.78,PT,1680570247
138,Vardø,70.3705,31.1107,-0.38,83,100,11.21,NO,1680570248
139,Primorskiy,43.0983,131.5875,9.5,66,100,4.09,RU,1680570249
140,Doha,25.2867,51.5333,19.99,56,0,8.75,QA,1680570250
141,Clyde River,70.4692,-68.5914,-21.87,71,0,2.57,CA,1680570218
142,Kitui,-1.367,38.0106,17.39,97,100,1.22,KE,1680570252
143,Port Elizabeth,-33.918,25.5701,17.4,81,0,6.69,ZA,1680570180
144,Ambilobe,-13.2,49.05,22.23,96,13,1.48,MG,1680570256
145,Soe,-9.8607,124.284,23.97,71,100,1.82,ID,1680570257
146,Edd,13.9297,41.6925,25.7,78,100,0.7,ER,1680570259
147,Upernavik,72.7868,-56.1549,-29.08,100,31,2.01,GL,1680570261
148,Kysyl-Syr,63.8986,122.7617,-5.32,93,100,2.05,RU,1680570262
149,Cururupu,-1.8283,-44.8683,22.03,98,87,0.74,BR,1680570263
150,Broome,42.2506,-75.833,11.1,94,100,2.84,US,1680570264
151,Dikson,73.5069,80.5464,-22.6,98,100,4.81,RU,1680570268
152,Kamskoye Ustye,55.2016,49.268,4.0,76,84,1.7,RU,1680570270
153,Batemans Bay,-35.7167,150.1833,23.4,50,15,2.74,AU,1680570274
154,Chekhov,55.1431,37.4711,8.38,95,100,1.96,RU,1680570275
155,Taber,49.8167,-112.1518,-0.53,90,100,4.12,CA,1680570009
156,Kruisfontein,-34.0033,24.7314,14.81,87,55,4.16,ZA,1680570277
157,Lake Jackson,29.0339,-95.4344,25.03,91,100,4.63,US,1680570272
158,Kalmunai,7.4167,81.8167,25.19,85,4,3.11,LK,1680570279
159,Rocha,-34.4833,-54.3333,16.77,88,100,0.54,UY,1680570086
160,Castro,-24.7911,-50.0119,15.28,85,2,1.28,BR,1680570105
161,Auki,-8.7676,160.7034,30.55,63,100,0.59,SB,1680570281
162,Qaqortoq,60.7167,-46.0333,-1.17,80,93,1.81,GL,1680570282
163,Praia da Vitória,38.7333,-27.0667,13.75,94,20,3.95,PT,1680570283
164,Enshi,30.3,109.4833,17.15,95,100,0.92,CN,1680570284
165,Viedma,-40.8135,-62.9967,13.89,75,0,4.26,AR,1680570286
166,Sulangan,11.1373,123.7228,26.8,78,42,4.85,PH,1680570287
167,Lorengau,-2.0226,147.2712,29.82,64,29,1.83,PG,1680570287
168,Kingman,35.1894,-114.053,10.71,18,100,12.35,US,1680570010
169,Pokhara,28.2333,83.9833,17.81,46,47,2.28,NP,1680570182
170,Owasso,36.2695,-95.8547,30.51,52,0,4.51,US,1680570006
171,Mujiayingzi,42.1167,118.7833,2.37,37,100,5.92,CN,1680570290
172,Lüderitz,-26.6481,15.1594,16.75,66,0,6.7,NA,1680570291
173,Belaya Gora,68.5333,146.4167,-11.4,77,5,1.64,RU,1680570292
174,Brae,60.3964,-1.353,5.53,85,39,7.76,GB,1680570293
175,Hammerfest,70.6634,23.6821,1.25,100,75,5.14,NO,1680570293
176,Fort Nelson,58.8053,-122.7002,0.77,44,75,3.09,CA,1680570294
177,Am Timan,11.0297,20.2827,29.18,15,48,3.25,TD,1680570297
178,Lodja,-3.4833,23.4333,19.34,98,100,0.08,CD,1680570299
179,Algiers,36.7525,3.042,7.9,76,40,1.03,DZ,1680570300
180,Tromsø,69.6496,18.957,2.01,87,75,5.14,NO,1680570300
181,Wajir,1.7471,40.0573,27.18,68,100,4.64,KE,1680570158
182,Fukuechō,32.6881,128.8419,18.2,77,75,4.63,JP,1680570302
183,Artyom,40.4723,50.333,7.08,80,0,2.46,AZ,1680570303
184,Miles City,46.4083,-105.8406,1.54,60,0,7.2,US,1680570304
185,Makakilo City,21.3469,-158.0858,28.18,61,75,7.2,US,1680570305
186,Gravdal,68.1214,13.5031,3.53,83,100,2.87,NO,1680570306
187,Sosnovo-Ozerskoye,52.5249,111.5418,-6.73,44,15,7.5,RU,1680570308
188,Graaff-Reinet,-32.2522,24.5308,13.6,80,0,0.43,ZA,1680570311
189,Egvekinot,66.3167,-179.1667,-19.29,76,15,1.6,RU,1680570313
190,Camacha,33.0833,-16.3333,15.68,63,40,9.26,PT,1680570314
191,Hanover,52.3705,9.7332,1.07,81,0,3.09,DE,1680570221
192,Pevek,69.7008,170.3133,-21.08,82,100,3.96,RU,1680570319
193,Longyearbyen,78.2186,15.6401,-15.54,96,100,2.73,SJ,1680570324
194,São João da Barra,-21.6403,-41.0511,23.05,88,90,3.59,BR,1680570283
195,Yar-Sale,66.8333,70.8333,-16.31,82,93,7.53,RU,1680570330
196,Souillac,-20.5167,57.5167,25.21,88,40,1.54,MU,1680570331
197,Askarovo,53.3372,58.5089,-3.47,86,70,4.0,RU,1680570331
198,Cacoal,-11.4386,-61.4472,22.66,98,98,1.63,BR,1680570335
199,Port Lincoln,-34.7333,135.8667,25.28,25,7,3.05,AU,1680570037
200,Sur,22.5667,59.5289,23.08,57,25,1.37,OM,1680570337
201,Bandarbeyla,9.4942,50.8122,27.01,76,100,4.5,SO,1680570338
202,Burnie,-41.0667,145.9167,20.52,51,100,1.91,AU,1680570339
203,Tutóia,-2.7619,-42.2744,24.41,88,100,0.62,BR,1680570339
204,Zilair,52.2332,57.4392,0.51,82,62,2.63,RU,1680570340
205,Saint-Augustin,51.226,-58.6502,-2.43,80,23,2.35,CA,1680570341
206,Mahébourg,-20.4081,57.7,25.16,88,40,1.54,MU,1680570342
207,Brattleboro,42.8509,-72.5579,11.23,52,82,2.24,US,1680570343
208,Celestún,20.8667,-90.4,26.72,74,21,6.35,MX,1680570343
209,Jiazi,22.8779,116.067,22.62,85,100,4.37,CN,1680570344
210,Jamestown,42.097,-79.2353,9.8,61,100,3.09,US,1680570345
211,Maceió,-9.6658,-35.7353,27.69,78,20,1.54,BR,1680570285
212,Talnakh,69.4865,88.3972,-27.11,96,100,1.62,RU,1680570346
213,Anchorage,61.2181,-149.9003,3.4,56,100,1.34,US,1680570126
214,George Town,5.4112,100.3354,26.96,99,20,1.03,MY,1680570267
215,Senno,59.5336,33.9167,-0.97,98,100,2.11,RU,1680570349
216,Isangel,-19.55,169.2667,32.06,70,75,2.57,VU,1680570349
217,Bluff,-46.6,168.3333,14.89,70,73,5.11,NZ,1680570350
218,Sobolevo,54.4299,31.8996,0.44,99,100,2.95,RU,1680570351
219,Sibolga,1.7427,98.7792,25.52,82,98,1.04,ID,1680570352
220,Lebu,-37.6167,-73.65,12.91,76,0,7.97,CL,1680570354
221,Liku,-0.7275,119.8922,27.35,73,100,0.7,ID,1680570355
222,Vanimo,-2.6741,141.3028,27.84,78,100,1.46,PG,1680570356
223,Buchanan,5.8808,-10.0467,25.21,87,100,2.24,LR,1680570357
224,Aykhal,66.0,111.5,-19.13,94,100,6.25,RU,1680570358
225,Westport,41.1415,-73.3579,10.33,76,0,5.66,US,1680570184
226,Eyl,7.9803,49.8164,27.94,66,99,5.82,SO,1680570359
227,Hay River,60.8156,-115.7999,-9.02,73,100,4.63,CA,1680570360
228,Kokopo,-4.352,152.2633,28.92,67,99,1.96,PG,1680570361
229,Hamīrpur,25.95,80.15,25.92,30,9,1.41,IN,1680570362
230,Esmeralda,21.8525,-78.1169,23.78,73,0,3.63,CU,1680570363
231,Iqaluit,63.7506,-68.5145,-17.15,71,75,8.23,CA,1680570364
232,Ranfurly,-45.1333,170.1,16.73,64,16,0.89,NZ,1680570365
233,Sept-Îles,50.2001,-66.3821,-0.76,77,100,3.09,CA,1680570267
234,Gornopravdinsk,60.05,69.9,-1.42,92,100,4.47,RU,1680570367
235,Cabo San Lucas,22.8909,-109.9124,28.67,51,100,6.19,MX,1680570043
236,Pakdasht,35.4752,51.6807,11.0,36,74,2.06,IR,1680570369
237,Beausejour,50.0622,-96.5167,-4.13,86,100,3.6,CA,1680570371
238,Hong Kong,22.2855,114.1577,25.24,93,11,0.89,HK,1680570367
239,Mossamedes,-15.1961,12.1522,23.86,77,37,3.35,AO,1680570372
240,Ilulissat,69.2167,-51.1,-26.05,99,26,2.53,GL,1680570373
241,Cosamaloapan,18.3667,-95.8,27.08,63,4,3.35,MX,1680570375
242,Teya,60.3778,92.6267,-5.71,92,100,3.34,RU,1680570377
243,Waddān,29.1614,16.139,13.54,34,0,2.58,LY,1680570378
244,Kasempa,-13.4584,25.8338,16.29,98,100,2.1,ZM,1680570379
245,Nuuk,64.1835,-51.7216,-0.66,64,79,6.69,GL,1680570382
246,Kudahuvadhoo,2.6708,72.8944,27.59,68,4,1.35,MV,1680570384
247,Vilyuysk,63.7553,121.6247,-5.73,93,100,2.62,RU,1680570387
248,Bilma,18.6853,12.9164,24.81,8,100,2.96,NE,1680570389
249,Dunkwa,5.9656,-1.78,23.82,93,99,0.97,GH,1680570390
250,Tashtagol,52.7657,87.8894,-3.61,83,100,1.2,RU,1680570391
251,Kahului,20.8947,-156.47,27.01,69,40,8.05,US,1680570391
252,Marabu,4.4148,114.0089,25.08,88,40,0.51,MY,1680570393
253,Nanortalik,60.1432,-45.2371,-0.35,85,94,0.4,GL,1680570393
254,Esik,43.3552,77.4525,-3.32,25,1,4.42,KZ,1680570394
255,Safaga,26.7292,33.9365,23.91,30,100,2.89,EG,1680570395
256,Gallup,35.5281,-108.7426,13.91,21,0,14.4,US,1680570146
257,Belmonte,-15.8631,-38.8828,23.95,88,98,3.93,BR,1680570396
258,Paracatu,-17.2222,-46.8747,17.7,89,100,0.71,BR,1680570397
259,Dingle,10.9995,122.6711,29.37,62,51,4.29,PH,1680570398
260,Tuatapere,-46.1333,167.6833,17.79,53,44,1.38,NZ,1680570400
261,Mariehamn,60.0973,19.9348,-0.66,100,0,1.54,AX,1680570401
262,Lavrentiya,65.5833,-171.0,-15.17,81,74,3.29,RU,1680570401
263,Solnechnyy,50.7214,136.6319,2.28,75,100,1.01,RU,1680570402
264,Laguna,38.421,-121.4238,15.05,30,0,6.17,US,1680570403
265,Khatanga,71.9667,102.5,-29.68,95,100,5.3,RU,1680570404
266,Severo-Kuril'sk,50.6789,156.125,0.9,84,69,5.62,RU,1680570404
267,Nhulunbuy,-12.2333,136.7667,31.34,70,75,5.66,AU,1680570405
268,Lompoc,34.6391,-120.4579,12.79,62,0,13.38,US,1680570406
269,Penzance,50.1186,-5.5371,6.38,80,100,6.06,GB,1680570407
270,City of San Pedro,14.35,121.0167,29.57,69,20,3.6,PH,1680570408
271,Torbay,47.6666,-52.7314,-0.41,82,75,6.69,CA,1680570204
272,Saldanha,-33.0117,17.9442,16.04,93,100,3.22,ZA,1680570409
273,Ordzhonīkīdze,52.4411,61.7408,1.75,75,63,3.18,KZ,1680570410
274,Pinsk,52.1229,26.0951,-0.91,68,100,3.78,BY,1680570411
275,Cayenne,4.9333,-52.3333,23.02,94,40,0.0,GF,1680570412
276,Ancud,-41.8697,-73.8203,11.57,92,98,1.55,CL,1680570412
277,Cabedelo,-6.9811,-34.8339,26.37,78,5,4.23,BR,1680570413
278,Beisfjord,68.3751,17.5988,3.91,92,100,2.63,NO,1680570414
279,Yabrūd,33.9674,36.6574,10.56,39,51,1.63,SY,1680570415
280,Lagoa,39.05,-27.9833,14.57,69,100,4.75,PT,1680570416
281,Broken Hill,-31.95,141.4333,22.24,24,0,3.57,AU,1680570416
282,Tiksi,71.6872,128.8694,-8.55,89,100,2.27,RU,1680570417
283,Faanui,-16.4833,-151.75,28.06,73,100,3.96,PF,1680570419
284,Kamen'-na-Obi,53.7884,81.3423,-1.09,65,66,2.95,RU,1680570420
285,Oranjestad,12.524,-70.027,26.97,85,20,10.29,AW,1680570421
286,Nishihara,26.1842,127.7558,21.6,77,100,8.23,JP,1680570421
287,Novy Urengoy,66.0833,76.6333,-19.77,82,100,7.38,RU,1680570422
288,Vostok,46.4856,135.8833,7.04,46,65,5.01,RU,1680570423
289,Yaan,7.3833,8.5667,27.45,68,100,4.95,NG,1680570425
290,Nālūt,30.3333,10.85,11.28,39,0,2.68,LY,1680570158
291,Baoro,5.6667,15.9667,22.9,68,100,1.33,CF,1680570427
292,Neuquén,-38.9516,-68.0591,14.94,72,0,0.0,AR,1680570427
293,Basoko,1.2391,23.616,21.41,95,100,1.93,CD,1680570428
294,Thompson,55.7435,-97.8558,-13.5,92,100,0.9,CA,1680570429
295,Tsimmerbude,54.675,20.1347,0.03,66,10,4.39,RU,1680570430
296,Coquimbo,-29.9533,-71.3436,15.85,100,0,3.09,CL,1680570431
297,Araouane,18.9048,-3.5265,25.22,7,0,3.07,ML,1680570432
298,Ayan,56.45,138.1667,-4.32,87,100,1.42,RU,1680570433
299,Sinegor'ye,62.0788,150.477,-10.62,70,2,0.52,RU,1680570434
300,Port Blair,11.6667,92.75,26.68,72,100,2.09,IN,1680570435
301,Keningau,5.3378,116.1602,26.88,75,41,0.9,MY,1680570435
302,Kralendijk,12.15,-68.2667,25.99,78,20,8.23,BQ,1680570436
303,Chumikan,54.7183,135.315,-2.14,62,3,9.63,RU,1680570437
304,Bijapur,16.8333,75.7,23.76,50,26,4.61,IN,1680570438
305,Prince Rupert,54.3161,-130.3201,6.05,72,0,3.6,CA,1680570341
306,Yanji,42.9075,129.5078,14.32,43,100,2.65,CN,1680570441
307,College,64.8569,-147.8028,1.72,55,75,1.54,US,1680570442
308,Kavieng,-2.5744,150.7967,28.73,70,19,1.75,PG,1680570443
309,Virginia Beach,36.8529,-75.978,18.9,72,100,4.63,US,1680570227
310,Dwārka,22.2394,68.9678,24.7,81,5,4.51,IN,1680570447
311,Lahaina,20.8783,-156.6825,27.0,79,17,3.27,US,1680570448
312,Arman',59.7,150.1667,-6.22,73,23,1.58,RU,1680570448
313,Alberdi,-32.8899,-60.6906,18.91,92,0,1.03,AR,1680570449
314,Ust-Nera,64.5667,143.2,-14.09,92,100,3.03,RU,1680570450
315,Luziânia,-16.2525,-47.9503,20.83,94,66,1.93,BR,1680570451
316,Vestmanna,62.1564,-7.1664,6.51,100,100,7.72,FO,1680570452
317,Luau,-10.7073,22.2247,17.03,97,100,0.93,AO,1680570453
318,Oga,46.4631,10.347,-2.89,92,77,3.13,IT,1680570454
319,Tilichiki,60.4667,166.1,-10.26,88,100,5.14,RU,1680570455
320,Lerwick,60.1545,-1.1494,7.0,84,42,8.89,GB,1680570455
321,Bafilo,9.35,1.2667,25.83,51,98,1.64,TG,1680570456
322,Sitka,57.0531,-135.33,6.94,57,0,2.57,US,1680570457
323,Sambava,-14.2667,50.1667,23.96,90,34,2.59,MG,1680570458
324,Shelkovskaya,43.5069,46.3392,6.3,86,21,2.26,RU,1680570459
325,Agia Marina,37.75,23.5333,12.75,79,100,10.2,GR,1680570460
326,Mount Isa,-20.7333,139.5,29.87,19,98,5.14,AU,1680570461
327,Manono,-7.3,27.4167,21.06,96,100,0.84,CD,1680570462
328,Kormilovka,55.0026,74.1028,-3.8,81,6,3.06,RU,1680570462
329,East London,-33.0153,27.9116,19.11,69,100,8.09,ZA,1680570463
330,Mocuba,-16.8392,36.9856,18.79,97,96,1.02,MZ,1680570464
331,Kaduna,10.5222,7.4383,23.32,11,86,1.48,NG,1680570465
332,Trogir,43.5125,16.2517,8.03,42,0,12.86,HR,1680570466
333,Inírida,3.8653,-67.9239,24.62,79,13,0.98,CO,1680570468
334,Dodge City,37.7528,-100.0171,22.19,19,0,5.14,US,1680570469
335,Jatiroto,-7.8833,111.1167,25.12,80,91,1.15,ID,1680570470
336,Chokurdakh,70.6333,147.9167,-13.23,90,19,3.37,RU,1680570470
337,Coahuayana Viejo,18.7333,-103.6833,24.88,74,4,1.79,MX,1680570471
338,Kamaishi,39.2667,141.8833,12.79,49,1,2.37,JP,1680570472
339,Tadine,-21.55,167.8833,28.03,72,90,3.17,NC,1680570473
340,Fonte Boa,-2.4959,-66.2662,23.25,97,94,0.6,BR,1680570474
341,Pacific Grove,36.6177,-121.9166,12.12,65,0,10.28,US,1680570475
342,Ulladulla,-35.35,150.4667,23.2,53,29,2.45,AU,1680570476
343,Bollnäs,61.3482,16.3946,-2.27,94,100,1.37,SE,1680570476
344,Paamiut,61.994,-49.6678,1.07,76,100,2.96,GL,1680570477
345,Jiuquan,39.7432,98.5174,-0.7,70,100,6.2,CN,1680570478
346,Portland,45.5234,-122.6762,9.95,79,100,3.09,US,1680570094
347,Banjar,-8.19,114.9675,24.51,92,100,1.7,ID,1680570480
348,Perevoz,55.5961,44.5446,6.29,76,100,2.03,RU,1680570481
349,Bayevo,53.2833,80.7667,0.18,62,7,2.9,RU,1680570482
350,Baharly,38.4362,57.4316,9.85,60,82,1.37,TM,1680570482
351,Itarema,-2.9248,-39.9167,24.64,84,100,0.48,BR,1680570483
352,Becsehely,46.4476,16.7771,1.55,58,100,7.03,HU,1680570484
353,Atar,20.5169,-13.0499,25.68,10,1,3.18,MR,1680570485
354,Tommot,58.9564,126.2925,-6.11,92,100,5.03,RU,1680570486
355,El Alto,-4.2714,-81.2147,25.81,80,100,3.61,PE,1680570487
356,Muravlenko,63.7898,74.523,-24.65,98,5,2.31,RU,1680570488
357,Tateyama,34.9833,139.8667,13.76,53,0,3.34,JP,1680570489
358,Tual,-5.6667,132.75,26.75,79,100,4.34,ID,1680570490
359,Rapid Valley,44.0625,-103.1463,0.35,94,100,1.79,US,1680570491
360,Sumenep,-7.0167,113.8667,27.16,78,100,1.79,ID,1680570492
361,Valparaíso,-33.0393,-71.6273,18.89,57,0,0.0,CL,1680570431
362,Ixtapa,20.7,-105.2,24.57,73,40,2.57,MX,1680570494
363,Provideniya,64.3833,-173.3,-11.94,61,75,6.0,RU,1680570495
364,Dubai,25.2582,55.3047,18.96,72,20,4.12,AE,1680570230
365,Nizwá,22.9333,57.5333,18.92,24,67,1.01,OM,1680570275
366,Muisne,0.6,-80.0333,26.24,84,100,1.95,EC,1680570498
367,Umluj,25.0213,37.2685,24.06,35,19,2.44,SA,1680570499
368,Sultānpur,26.2667,82.0667,24.85,36,48,1.24,IN,1680570500
369,Les Cayes,18.2,-73.75,24.26,80,12,2.12,HT,1680570501
370,Olafsvik,64.8945,-23.7142,6.13,97,100,9.21,IS,1680570501
371,Bud,39.447,-86.1758,20.99,82,4,5.42,US,1680570502
372,Burkburnett,34.0979,-98.5706,24.38,35,0,4.63,US,1680570503
373,Kieta,-6.2167,155.6333,29.97,67,28,2.28,PG,1680570504
374,Campoverde,-8.4753,-74.8058,25.83,97,59,1.19,PE,1680570504
375,Ust'ye,59.6304,39.736,1.32,99,100,2.95,RU,1680570505
376,La Trinité,14.7376,-60.9629,25.03,39,0,4.12,MQ,1680570507
377,San Juan Raboso,18.5667,-98.45,29.64,19,4,2.26,MX,1680570507
378,Yagodnoye,62.55,149.6667,-12.7,77,5,1.32,RU,1680570508
379,Opuwo,-18.0607,13.84,20.96,43,84,2.57,NA,1680570509
380,Alexandria,31.2156,29.9553,15.3,35,0,5.23,EG,1680570306
381,Hurghada,27.2574,33.8129,20.56,33,97,1.98,EG,1680570511
382,Klaksvík,62.2266,-6.589,7.51,91,100,11.86,FO,1680570511
383,Nouadhibou,20.931,-17.0347,19.31,74,100,9.47,MR,1680570512
384,Barddhamān,23.25,87.85,25.75,40,3,2.09,IN,1680570514
385,Pangnirtung,66.1451,-65.7125,-18.64,71,33,3.29,CA,1680570515
386,Lata,40.1629,-8.3327,14.34,91,100,2.09,PT,1680570516
387,Boa Vista,2.8197,-60.6733,28.99,48,0,4.63,BR,1680569923
388,Russell,32.3502,-85.1999,18.6,94,75,2.06,US,1680570300
389,Leningradskiy,69.3833,178.4167,-21.61,86,5,1.65,RU,1680570518
390,Tomatlán,19.9333,-105.25,24.84,49,65,2.48,MX,1680570519
391,Sangar,63.9242,127.4739,-7.94,86,100,3.4,RU,1680570521
392,Atambua,-9.1061,124.8925,26.6,70,91,0.77,ID,1680570522
393,Yamada,39.4667,141.95,13.43,44,3,2.06,JP,1680570523
394,Homer,59.6425,-151.5483,2.65,79,100,1.54,US,1680570523
395,Erzin,36.9559,36.2,14.99,62,100,3.77,TR,1680570524
396,Huéscar,37.811,-2.5412,7.84,53,100,1.47,ES,1680570525
397,Maxixe,-23.8597,35.3472,21.18,87,0,2.1,MZ,1680570526
398,Ostrovnoy,68.0531,39.5131,-9.15,89,8,8.89,RU,1680570527
399,Kiryat Gat,31.61,34.7642,16.71,28,0,4.06,IL,1680570302
400,Tupanciretã,-29.0806,-53.8358,17.21,37,47,2.68,BR,1680570240
401,Salinópolis,-0.6136,-47.3561,24.0,92,100,2.58,BR,1680570529
402,Aljezur,37.3191,-8.8033,13.46,86,100,5.92,PT,1680570530
403,Cugir,45.8333,23.3667,5.1,96,100,3.4,RO,1680570531
404,Hofn,64.2539,-15.2082,7.87,95,100,10.75,IS,1680570532
405,Olinda,-8.0089,-34.8553,27.85,69,40,4.63,BR,1680570461
406,Neiafu,-18.65,-173.9833,29.38,74,20,4.12,TO,1680570533
407,Leh,34.1667,77.5833,-3.89,93,97,2.31,IN,1680570534
408,Seymchan,62.8833,152.4333,-15.99,80,37,1.87,RU,1680570535
409,Arona,28.0996,-16.681,18.28,82,0,3.09,ES,1680570536
410,Fairbanks,64.8378,-147.7164,1.72,54,40,1.54,US,1680570300
411,Tignère,7.3667,12.65,22.31,31,97,0.56,CM,1680570538
412,Te Anau,-45.4167,167.7167,17.5,51,21,0.62,NZ,1680570539
413,Sechura,-5.5569,-80.8222,27.33,77,100,4.49,PE,1680570539
414,La Ronge,55.1001,-105.2842,-6.12,90,97,2.08,CA,1680570540
415,Chui,-33.6971,-53.4616,17.03,83,100,1.6,UY,1680570541
416,Laas,46.6166,10.7002,-0.35,80,29,2.96,IT,1680570542
417,Riyadh,24.6877,46.7219,14.08,22,78,0.86,SA,1680570439
418,Dawei,14.0833,98.2,26.45,70,100,1.54,MM,1680570544
419,Yining,29.0361,114.5636,18.23,96,100,0.4,CN,1680570546
420,Aden,12.7794,45.0367,27.94,78,54,5.95,YE,1680570546
421,Glenwood Springs,39.5505,-107.3248,15.51,55,100,6.17,US,1680570547
422,Dzhebariki-Khaya,62.2167,135.8,-5.55,93,100,1.06,RU,1680570549
423,Adrar,20.5022,-10.0711,25.13,9,1,4.42,MR,1680570551
424,Lethem,3.3803,-59.7968,29.27,40,46,5.51,GY,1680570551
425,Vanavara,60.34,102.2797,-5.51,86,10,4.32,RU,1680570552
426,Taoudenni,22.6783,-3.9836,28.35,6,0,3.32,ML,1680570553
427,Tripoli,32.8752,13.1875,15.58,61,5,7.75,LY,1680570512
428,Ileza,61.0533,43.9002,-0.56,98,100,3.12,RU,1680570555
429,Chernyshevskiy,63.0128,112.4714,-5.73,94,100,4.52,RU,1680570556
430,Sinnamary,5.3833,-52.95,24.88,81,96,3.81,GF,1680570557
431,Las Matas de Farfán,18.8731,-71.5166,22.57,66,47,1.14,DO,1680570558
432,Norman Wells,65.282,-126.8329,-3.4,84,37,2.38,CA,1680570560
433,Susanville,40.4163,-120.653,1.91,49,20,5.14,US,1680570561
434,Hasaki,35.7333,140.8333,15.22,53,0,4.98,JP,1680570305
435,Katsuura,35.1333,140.3,14.32,53,0,4.62,JP,1680570563
436,Petropavlovsk-Kamchatskiy,53.0452,158.6483,3.33,45,0,6.0,RU,1680570564
437,Salalah,17.0151,54.0924,29.05,21,20,4.12,OM,1680570565
438,Diffa,13.3154,12.6113,25.85,7,28,3.41,NE,1680570566
439,Riberalta,-10.9833,-66.1,23.2,97,96,0.89,BO,1680570567
440,Zavodouspenskoye,56.8626,65.0155,2.12,86,86,1.17,RU,1680570567
441,Nabire,-3.3667,135.4833,28.27,70,100,0.26,ID,1680570568
442,Manta,-0.95,-80.7333,27.88,83,0,1.54,EC,1680570569
443,Weiser,44.251,-116.9693,7.15,49,100,4.02,US,1680570570
444,Caçu,-18.5567,-51.1308,22.37,82,73,1.15,BR,1680570571
445,The Pas,53.8251,-101.2541,-12.39,93,100,1.46,CA,1680570572
446,Takoradze,4.8845,-1.7554,26.61,84,96,3.06,GH,1680570573
447,Joshīmath,30.5667,79.5667,7.51,66,26,2.68,IN,1680570573
448,Zapolyarnyy,69.4154,30.8136,-4.4,90,88,7.55,RU,1680570574
449,São Filipe,14.8961,-24.4956,24.17,67,74,3.11,CV,1680570575
450,La Rioja,42.25,-2.5,-0.12,92,2,2.41,ES,1680570558
451,Rome,43.2128,-75.4557,10.08,72,100,3.09,US,1680570577
452,Pointe Michel,15.25,-61.3833,25.11,77,13,4.77,DM,1680570578
453,Yilan,24.757,121.753,26.68,68,47,3.23,TW,1680570578
454,Havøysund,70.9963,24.6622,2.13,83,100,8.47,NO,1680570579
455,Port Augusta,-32.5,137.7667,25.31,19,70,2.41,AU,1680570580
456,Ust'-Koksa,50.2696,85.6108,-6.91,76,21,0.69,RU,1680570581
457,Bosaso,11.2842,49.1816,26.81,74,8,1.11,SO,1680570582
458,Yuncheng,35.0231,110.9928,8.64,80,98,2.62,CN,1680570583
459,Khovd,48.0056,91.6419,-6.21,12,0,0.64,MN,1680570430
460,Semey,50.4111,80.2275,-4.88,86,0,3.0,KZ,1680570584
461,Āstāneh-ye Ashrafīyeh,37.2596,49.9444,10.47,83,100,1.14,IR,1680570585
462,Kostalexis,38.8579,22.3646,11.7,83,100,1.34,GR,1680570587
463,Nioro,13.35,-15.75,24.56,57,3,3.17,GM,1680570587
464,Tessalit,20.1986,1.0114,24.33,7,0,1.59,ML,1680570588
465,Xichang,27.8964,102.2634,15.09,49,0,0.8,CN,1680570589
466,Anito,12.4497,125.2886,26.03,85,59,5.23,PH,1680570591
467,Codrington,-38.2667,141.9667,18.05,59,100,1.81,AU,1680570592
468,Conceição do Araguaia,-8.2578,-49.2647,22.85,94,100,0.79,BR,1680570593
469,Aklavik,68.2191,-135.0107,-7.55,85,100,3.76,CA,1680570594
470,Sri Mādhopur,27.4667,75.6,20.68,58,5,2.87,IN,1680570594
471,Zhangjiakou,40.81,114.8794,6.51,66,100,3.38,CN,1680570595
472,Padang,-0.9492,100.3543,25.03,79,53,1.21,ID,1680570596
473,Sola,-13.8833,167.55,28.36,73,100,7.4,VU,1680570597
474,Letpadan,17.7833,95.75,26.12,65,9,1.89,MM,1680570598
475,Geraldton,-28.7667,114.6,22.23,73,62,6.69,AU,1680570598
476,Havelock,34.8791,-76.9013,18.86,89,100,3.6,US,1680570424
477,Laishevo,55.4046,49.5504,3.12,78,47,2.12,RU,1680570600
478,Henties Bay,-22.116,14.2845,16.3,85,0,3.6,NA,1680570601
479,Shelburne,44.0787,-80.2041,5.17,69,89,1.25,CA,1680570569
480,Rāwah,34.4816,41.9093,17.16,51,4,1.73,IQ,1680570604
481,Haines Junction,60.7522,-137.5108,-1.75,59,12,2.3,CA,1680570606
482,Turukhansk,65.8167,87.9833,-27.02,96,25,2.91,RU,1680570607
483,Poim,53.0264,43.1872,6.86,69,21,3.08,RU,1680570609
484,Sālūr,18.5333,83.2167,25.7,82,68,0.88,IN,1680570612
485,Shenkursk,62.1091,42.896,-1.97,97,100,2.81,RU,1680570613
486,Novoorsk,51.381,58.9813,-1.64,71,51,3.76,RU,1680570614
487,Plettenberg Bay,-34.0527,23.3716,15.33,84,98,2.5,ZA,1680570615
488,Claremore,36.3126,-95.6161,28.07,39,0,4.63,US,1680570616
489,Bowen,-20.0167,148.2333,26.44,80,33,3.08,AU,1680570617
490,Suicheng,33.8963,117.9331,12.62,98,100,0.52,CN,1680570619
491,Escanaba,45.7453,-87.0646,3.17,80,0,3.6,US,1680570621
492,Grootfontein,-19.5667,18.1167,18.46,58,14,1.89,NA,1680570622
493,Raudeberg,61.9875,5.1352,4.37,71,33,5.91,NO,1680570623
494,Abu Dhabi,24.4667,54.3667,23.3,65,0,3.09,AE,1680570618
495,Neryungri,56.6709,124.6491,-6.81,87,100,8.46,RU,1680570627
496,Tārāpur,19.85,72.7,24.27,77,0,1.69,IN,1680570629
497,Deputatsky,69.3,139.9,-11.87,91,54,1.48,RU,1680570630
498,Amapá,1.0,-52.0,21.66,92,14,1.41,BR,1680570631
499,Abonnema,4.7084,6.7931,24.75,86,100,1.4,NG,1680570635
500,Māngrol,21.1167,70.1167,24.01,79,5,3.52,IN,1680570536
501,Upington,-28.4478,21.2561,14.77,45,3,3.44,ZA,1680570637
502,‘Āhuimanu,21.4447,-157.8378,28.84,68,40,7.2,US,1680570639
503,Toora-Khem,52.4675,96.11,-8.55,70,92,1.24,RU,1680570640
504,Presidencia Roque Sáenz Peña,-26.7852,-60.4388,26.24,45,29,2.46,AR,1680570640
505,Gijón,43.5357,-5.6615,11.7,80,96,8.94,ES,1680570641
506,Macusani,-14.0833,-70.4333,3.44,91,100,1.41,PE,1680570642
507,Kununurra,-15.7667,128.7333,28.99,74,75,1.54,AU,1680570514
508,Westerville,40.1262,-82.9291,16.42,74,6,2.3,US,1680570106
509,Xapuri,-10.6517,-68.5044,22.99,96,79,1.15,BR,1680570644
510,Province of Trapani,37.8333,12.6667,10.49,87,78,5.08,IT,1680570650
511,San Quintín,30.4833,-115.95,13.11,61,5,11.83,MX,1680570650
512,Hirara,24.8,125.2833,22.12,62,28,10.34,JP,1680570651
513,Ambovombe,-25.1667,46.0833,21.41,89,0,1.45,MG,1680570653
514,Dahra,36.2546,0.8519,8.3,60,100,1.49,DZ,1680570659
515,Marsabit,2.3284,37.9899,19.79,74,100,3.82,KE,1680570660
516,Ananas,19.2466,-71.9557,21.8,83,51,2.75,HT,1680570661
517,Moussoro,13.6408,16.4901,27.55,9,84,4.47,TD,1680570662
518,Inhambane,-23.865,35.3833,21.92,85,0,2.38,MZ,1680570462
519,Wolgast,54.05,13.7667,-1.99,100,18,1.6,DE,1680570665
520,Gerpinnes,50.3379,4.5273,1.0,77,0,2.57,BE,1680570666
521,Bara,10.3744,10.7288,26.3,12,100,3.19,NG,1680570631
522,Lawrenceburg,38.0373,-84.8966,17.94,57,40,6.17,US,1680570667
523,Labytnangi,66.6572,66.4183,-16.77,86,15,3.98,RU,1680570668
524,Anadyr,64.75,177.4833,-21.72,84,20,2.0,RU,1680570670
525,Marsh Harbour,26.5412,-77.0636,24.62,73,99,3.95,BS,1680570670
526,Zhezkazgan,47.8043,67.7144,2.88,41,11,6.7,KZ,1680570672
527,Capreol,46.706,-80.9225,-0.68,93,100,3.14,CA,1680570673
528,Remedios,22.4947,-79.5458,25.51,74,0,5.92,CU,1680570674
529,Kalmar,56.6616,16.3616,-0.58,84,84,2.57,SE,1680570674
530,Puyang,29.4603,119.8861,20.94,77,100,6.29,CN,1680570675
531,Maningrida,-12.0667,134.2667,30.17,58,100,3.26,AU,1680570676
532,Iquitos,-3.7481,-73.2472,25.02,83,75,0.51,PE,1680570597
533,Syracuse,37.0881,15.2792,12.65,62,92,6.96,IT,1680570678
534,Roche-la-Molière,45.4341,4.3228,1.06,75,0,2.57,FR,1680570678
535,Uíge,-7.6087,15.0613,19.4,99,100,0.51,AO,1680570679
536,Palm Coast,29.585,-81.2078,25.07,87,24,0.45,US,1680570680
537,Babstovo,48.1167,132.4833,4.5,27,100,6.94,RU,1680570682
538,Mahon,39.8885,4.2658,10.31,81,0,2.06,ES,1680570684
539,Puerto Escondido,15.85,-97.0667,28.46,65,40,2.57,MX,1680570685
540,Lesosibirsk,58.2358,92.4828,0.57,98,100,4.66,RU,1680570686
541,Micheweni,-4.9667,39.8333,26.46,83,100,2.7,TZ,1680570686
542,Touros,-5.1989,-35.4608,25.9,79,48,3.24,BR,1680570687
543,Los Llanos de Aridane,28.6585,-17.9182,17.86,89,40,8.75,ES,1680570689
544,Toropets,56.4978,31.6353,-1.11,98,100,2.25,RU,1680570689
545,Bonthe,7.5264,-12.505,26.12,85,48,1.0,SL,1680570691
546,Iskateley,67.6803,53.1512,-15.99,95,18,3.73,RU,1680570692
547,Lázaro Cárdenas,17.9583,-102.2,26.29,67,0,3.85,MX,1680570454
548,Kishapu,-3.6167,33.8667,17.85,88,99,0.17,TZ,1680570694
549,Fare,-16.7,-151.0167,27.76,73,100,3.68,PF,1680570694
550,Kapoeta,4.7717,33.5903,26.73,48,100,4.01,SS,1680570695
551,Papara,-3.9839,-38.7273,25.22,95,100,0.06,BR,1680570696
552,Luba,3.4568,8.5547,26.93,81,100,2.23,GQ,1680570697
553,Naberera,-4.2,36.9333,15.6,97,88,1.78,TZ,1680570698
554,Synya,65.3718,58.0387,-21.9,97,5,1.15,RU,1680570699
555,Kamenskiy,50.8855,45.488,10.31,54,100,0.88,RU,1680570700
556,Bathsheba,13.2167,-59.5167,26.34,73,40,7.2,BB,1680570701
557,Gamba,-2.65,10.0,24.87,85,100,1.64,GA,1680570702
