City_ID,City,Lat,Lng,Max Temp,Humidity,Cloudiness,Wind Speed,Country,Date
0,Myanaung,18.2833,95.3167,31.23,36,63,1.81,MM,1680059482
1,Cherskiy,68.75,161.3,-7.69,77,100,8.94,RU,1680059482
2,Cabo San Lucas,22.8909,-109.9124,21.95,61,40,1.54,MX,1680059483
3,George Town,5.4112,100.3354,30.96,74,20,2.57,MY,1680059483
4,Ilulissat,69.2167,-51.1,-27.42,89,5,2.24,GL,1680059484
5,Thompson,55.7435,-97.8558,-12.91,72,100,6.17,CA,1680059484
6,Vila Franca do Campo,37.7167,-25.4333,15.23,84,7,8.39,PT,1680059484
7,Hobart,-42.8794,147.3294,20.14,74,75,2.57,AU,1680059485
8,Hermanus,-34.4187,19.2345,14.89,73,100,2.9,ZA,1680059485
9,Jamestown,42.097,-79.2353,1.12,76,0,1.34,US,1680059485
10,Hay River,60.8156,-115.7999,-2.59,98,100,2.48,CA,1680059419
11,Stornoway,58.2093,-6.3865,7.98,94,100,3.6,GB,1680059277
12,Muzhi,65.3667,64.6667,-10.04,79,83,5.75,RU,1680059487
13,Novomichurinsk,54.0384,39.7479,6.02,76,100,6.78,RU,1680059487
14,Ternate,0.8,127.4,27.63,75,82,1.84,ID,1680059488
15,Aksarka,66.5606,67.7975,-13.99,88,81,4.74,RU,1680059488
16,Teahupoo,-17.8333,-149.2667,27.98,76,95,3.66,PF,1680059488
17,Albany,42.6001,-73.9662,2.97,69,55,1.94,US,1680059368
18,Souillac,-20.5167,57.5167,24.57,79,72,2.38,MU,1680059489
19,Beringovskiy,63.05,179.3167,-0.69,98,100,5.26,RU,1680059489
20,Finspång,58.7058,15.7674,-1.41,81,100,2.63,SE,1680059384
21,Carutapera,-1.195,-46.02,24.16,93,100,1.84,BR,1680059492
22,Lüderitz,-26.6481,15.1594,15.62,66,0,6.87,NA,1680059492
23,Hilo,19.7297,-155.09,24.58,83,75,6.69,US,1680059223
24,Yar-Sale,66.8333,70.8333,-21.38,99,98,3.78,RU,1680059493
25,Codrington,-38.2667,141.9667,15.85,67,100,6.59,AU,1680059345
26,Ruteng,-8.6136,120.4721,23.59,64,93,0.1,ID,1680059493
27,Beyneu,45.3167,55.2,11.04,81,69,2.41,KZ,1680059494
28,Mar del Plata,-38.0023,-57.5575,23.94,64,0,5.66,AR,1680059494
29,Iqaluit,63.7506,-68.5145,-13.15,84,100,6.17,CA,1680059257
30,Bandarbeyla,9.4942,50.8122,26.43,79,92,2.26,SO,1680059495
31,Busselton,-33.65,115.3333,22.94,40,17,4.95,AU,1680059495
32,Saint-Philippe,-21.3585,55.7679,23.77,67,73,1.84,RE,1680059234
33,Barrow,71.2906,-156.7887,-11.99,85,100,8.23,US,1680059496
34,Rikitea,-23.1203,-134.9692,26.7,76,95,5.02,PF,1680059454
35,Saskylakh,71.9167,114.0833,-22.99,92,95,4.55,RU,1680059239
36,Laibin,23.7,109.2667,15.56,87,100,1.64,CN,1680059497
37,Tiznit Province,29.5833,-9.5,22.43,14,0,2.07,MA,1680059497
38,Yellowknife,62.456,-114.3525,-6.45,97,100,2.53,CA,1680059498
39,Jiangkou,25.4872,119.1986,13.94,90,100,3.64,CN,1680059498
40,Aswān,24.0934,32.907,19.29,23,0,4.38,EG,1680059498
41,Ushuaia,-54.8,-68.3,0.81,75,75,1.03,AR,1680059499
42,Butaritari,3.0707,172.7902,27.33,81,75,5.78,KI,1680059254
43,Punta Arenas,-53.15,-70.9167,2.06,80,20,8.75,CL,1680059495
44,Oistins,13.0667,-59.5333,26.05,65,40,8.23,BB,1680059500
45,Lavrentiya,65.5833,-171.0,-4.37,96,100,6.65,RU,1680059500
46,Castro,-24.7911,-50.0119,16.42,98,18,2.28,BR,1680059500
47,Lebu,-37.6167,-73.65,10.87,78,4,1.29,CL,1680059501
48,Dikson,73.5069,80.5464,-24.46,97,100,5.26,RU,1680059501
49,New Norfolk,-42.7826,147.0587,19.95,74,92,0.97,AU,1680059501
50,George,-33.963,22.4617,15.53,79,100,6.03,ZA,1680059233
51,Zhigansk,66.7697,123.3711,-19.56,88,93,6.43,RU,1680059412
52,Ribeira Grande,38.5167,-28.7,14.87,77,14,8.49,PT,1680059502
53,Torbay,47.6666,-52.7314,-0.24,91,100,1.79,CA,1680059503
54,Qaanaaq,77.484,-69.3632,-25.34,65,67,3.0,GL,1680059278
55,Vaini,-21.2,-175.2,28.09,83,20,4.63,TO,1680059503
56,Emerald,-23.5333,148.1667,31.86,41,100,1.54,AU,1680059504
57,Magway,20.15,94.9167,31.58,38,24,1.95,MM,1680059504
58,Carnarvon,-24.8667,113.6333,26.51,65,90,3.68,AU,1680059504
59,Asău,46.4333,26.4,-1.51,85,87,0.93,RO,1680059451
60,Coquimbo,-29.9533,-71.3436,15.85,88,0,1.03,CL,1680059505
61,Saint Paul Harbor,57.79,-152.4072,5.73,65,100,4.12,US,1680059505
62,Avera,33.194,-82.5271,17.03,73,100,6.64,US,1680059506
63,Atuona,-9.8,-139.0333,27.05,80,18,5.65,PF,1680059253
64,Gemena,3.25,19.7667,21.41,94,88,0.85,CD,1680059507
65,Tripoli,32.8752,13.1875,14.61,67,74,3.43,LY,1680059398
66,Abomsa,9.9833,39.9833,18.47,92,100,1.76,ET,1680059507
67,Geraldton,-28.7667,114.6,28.23,65,100,5.66,AU,1680059235
68,Mbini,1.574,9.6134,25.31,87,100,2.42,GQ,1680059508
69,Lagoa,39.05,-27.9833,13.92,76,0,14.43,PT,1680059509
70,Burē,10.7,37.0667,15.71,43,97,0.98,ET,1680059509
71,Omboué,-1.5746,9.2618,24.78,90,100,1.73,GA,1680059510
72,Avarua,-21.2078,-159.775,27.03,89,75,2.57,CK,1680059510
73,Mahébourg,-20.4081,57.7,24.03,78,42,2.96,MU,1680059238
74,Hobyo,5.3505,48.5268,27.58,66,16,4.05,SO,1680059511
75,Tezu,27.9167,96.1667,19.57,74,98,1.57,IN,1680059511
76,Bengkulu,-3.8004,102.2655,25.49,88,100,2.47,ID,1680059512
77,Mataura,-46.1927,168.8643,10.27,52,88,2.92,NZ,1680059512
78,Deputatsky,69.3,139.9,-20.83,84,14,2.16,RU,1680059513
79,San Policarpo,12.1791,125.5072,27.19,83,98,4.12,PH,1680059513
80,Arenápolis,-14.4503,-56.8461,22.95,91,22,1.06,BR,1680059514
81,Inhambane,-23.865,35.3833,19.51,71,1,2.11,MZ,1680059515
82,Tilichiki,60.4667,166.1,-7.03,79,7,7.88,RU,1680059515
83,Clyde River,70.4692,-68.5914,-25.47,96,59,2.29,CA,1680059515
84,Pevek,69.7008,170.3133,-9.95,76,14,8.67,RU,1680059279
85,Teknāf,20.8624,92.3058,28.74,62,9,0.75,BD,1680059516
86,Tuktoyaktuk,69.4541,-133.0374,-13.63,87,100,6.8,CA,1680059517
87,Touros,-5.1989,-35.4608,25.19,83,92,3.73,BR,1680059517
88,Portland,45.5234,-122.6762,6.53,93,100,6.17,US,1680059479
89,Bwanga,-3.0308,31.7601,16.48,97,98,1.11,TZ,1680059518
90,Vanimo,-2.6741,141.3028,30.29,63,82,2.57,PG,1680059518
91,Tabas,33.5959,56.9244,17.94,51,8,1.53,IR,1680059519
92,Bluff,-46.6,168.3333,10.45,57,75,6.76,NZ,1680059519
93,Arlit,18.7369,7.3853,22.53,10,0,4.26,NE,1680059459
94,Caarapó,-22.6342,-54.8222,21.16,93,1,2.1,BR,1680059520
95,Makat,47.6469,53.3463,8.74,92,55,4.04,KZ,1680059521
96,Port Alfred,-33.5906,26.891,16.21,79,46,2.68,ZA,1680059230
97,Johnstown,40.3267,-78.922,6.4,56,0,3.09,US,1680059454
98,San Cristobal,7.7669,-72.225,22.1,73,89,0.49,VE,1680059522
99,East London,-33.0153,27.9116,17.39,75,25,10.04,ZA,1680059517
100,Bajil,15.0584,43.2851,24.27,76,100,1.82,YE,1680059522
101,Rio Rancho,35.2334,-106.6645,10.85,27,50,2.24,US,1680058861
102,Socorro,31.6546,-106.3033,14.5,17,0,6.17,US,1680059523
103,Shimoda,34.6667,138.95,15.06,65,53,5.06,JP,1680059524
104,Nuevitas,21.5453,-77.2644,24.07,80,25,2.12,CU,1680059524
105,Bredasdorp,-34.5322,20.0403,15.29,69,96,3.42,ZA,1680059227
106,Cape Town,-33.9258,18.4232,16.72,67,95,2.24,ZA,1680059256
107,Vagay,57.9375,69.0217,-3.41,73,96,6.25,RU,1680059525
108,Khatanga,71.9667,102.5,-20.44,93,100,5.96,RU,1680059526
109,Nanortalik,60.1432,-45.2371,-4.17,87,35,2.37,GL,1680059526
110,Alofi,-19.0595,-169.9187,25.94,89,100,6.69,NU,1680059527
111,Bethel,41.3712,-73.414,5.36,67,0,1.54,US,1680059527
112,Chegdomyn,51.1167,133.0167,7.34,44,100,4.89,RU,1680059528
113,Caraballeda,10.6112,-66.8522,25.76,77,20,1.54,VE,1680059528
114,Baykit,61.67,96.37,-6.64,94,100,1.67,RU,1680059530
115,Ardmore,34.1743,-97.1436,10.01,61,0,1.54,US,1680059271
116,Sinnai,39.3042,9.2036,8.57,76,0,2.57,IT,1680059531
117,Kutum,14.2,24.6667,18.18,17,7,2.61,SD,1680059375
118,Port Elizabeth,-33.918,25.5701,17.83,86,48,1.79,ZA,1680059532
119,Griffith,41.5284,-87.4237,6.05,68,0,3.09,US,1680059318
120,Talnakh,69.4865,88.3972,-24.48,96,66,2.85,RU,1680059532
121,Acaraú,-2.8856,-40.12,24.48,89,92,2.94,BR,1680059470
122,Altay,47.8667,88.1167,7.26,61,21,1.32,CN,1680059533
123,Kaka,37.3482,59.6143,17.15,53,7,1.53,TM,1680059533
124,Sinnamary,5.3833,-52.95,24.55,89,96,4.42,GF,1680059534
125,Jalu,29.0331,21.5482,14.97,54,1,6.25,LY,1680059534
126,Havre-St-Pierre,50.2334,-63.5986,-0.83,91,100,1.56,CA,1680059421
127,Saldanha,-33.0117,17.9442,15.88,72,80,7.78,ZA,1680059535
128,Caravelas,-17.7125,-39.2481,23.95,82,0,1.93,BR,1680059535
129,Carballo,43.213,-8.691,17.83,45,99,4.35,ES,1680059536
130,Birao,10.2849,22.7882,25.2,18,70,2.18,CF,1680059536
131,Katsuura,35.1333,140.3,17.01,83,100,6.44,JP,1680059536
132,Bambous Virieux,-20.3428,57.7575,24.01,78,33,3.14,MU,1680059537
133,Dunedin,-45.8742,170.5036,11.56,66,45,0.45,NZ,1680059537
134,Port Hardy,50.6996,-127.4199,6.31,70,0,3.21,CA,1680059538
135,Norashen,39.9996,44.5895,9.74,47,1,2.57,AM,1680059538
136,Kaitangata,-46.2817,169.8464,11.29,49,68,3.2,NZ,1680059539
137,Puerto Ayora,-0.7393,-90.3518,26.97,91,85,0.89,EC,1680059539
138,Aasiaat,68.7098,-52.8699,-26.31,100,82,2.06,GL,1680059540
139,Araouane,18.9048,-3.5265,28.75,10,95,5.49,ML,1680059540
140,Sompeta,18.9333,84.6,28.34,73,68,4.78,IN,1680059343
141,Natal,-5.795,-35.2094,25.36,94,20,1.54,BR,1680059541
142,Richards Bay,-28.783,32.0377,18.35,75,0,5.33,ZA,1680059541
143,Kavieng,-2.5744,150.7967,28.1,73,95,1.73,PG,1680059335
144,São João da Barra,-21.6403,-41.0511,24.22,83,92,2.1,BR,1680059543
145,Grahamstown,-33.3042,26.5328,12.75,86,72,6.25,ZA,1680059543
146,Chokurdakh,70.6333,147.9167,-20.31,92,81,6.46,RU,1680059544
147,Songjianghe,42.1859,127.479,12.06,26,1,4.65,CN,1680059544
148,Hong Kong,22.2855,114.1577,21.09,89,100,5.81,HK,1680059435
149,Ixtapa,20.7,-105.2,22.57,78,0,2.06,MX,1680059252
150,Maple Creek,49.9168,-109.4848,-5.96,79,19,1.13,CA,1680059545
151,Terrace Bay,48.7834,-87.1,-5.65,82,100,3.1,CA,1680059546
152,Longyearbyen,78.2186,15.6401,-20.62,98,43,1.14,SJ,1680059546
153,Masunga,-20.6246,27.4488,14.3,84,44,2.28,BW,1680059547
154,Vestmannaeyjar,63.4427,-20.2734,3.18,76,100,15.94,IS,1680059547
155,Desaguadero,-16.5656,-69.0417,8.18,76,100,2.64,PE,1680059547
156,Usinsk,65.9939,57.5281,-8.98,94,100,8.4,RU,1680059548
157,Tasiilaq,65.6145,-37.6368,-9.91,65,1,3.39,GL,1680059548
158,Porto Santo,33.072,-16.3415,18.21,72,0,2.06,PT,1680059548
159,Hithadhoo,-0.6,73.0833,28.15,75,50,3.5,MV,1680059549
160,Sibu,2.3,111.8167,31.74,59,69,0.85,MY,1680059548
161,Praia da Vitória,38.7333,-27.0667,14.86,79,3,10.05,PT,1680059550
162,Bridlington,54.0831,-0.1919,7.86,95,48,4.87,GB,1680059550
163,Guangming,45.3333,122.7833,17.08,16,4,4.5,CN,1680059550
164,Lieto,60.5103,22.4618,-3.35,94,40,2.06,FI,1680059532
165,Boralday,43.3578,76.8594,9.92,46,1,1.0,KZ,1680059551
166,Faanui,-16.4833,-151.75,28.1,73,39,2.77,PF,1680059552
167,Winburg,-28.518,27.0093,13.54,89,100,1.16,ZA,1680059554
168,Khovd,48.0056,91.6419,6.01,25,11,1.45,MN,1680059348
169,Nikolskoye,59.7035,30.7861,-1.06,97,100,3.41,RU,1680059554
170,Yumen,40.2833,97.2,11.91,12,97,5.09,CN,1680059555
171,Sitka,57.0531,-135.33,5.94,65,100,5.14,US,1680059555
172,Carauari,-4.8828,-66.8958,23.33,96,100,0.55,BR,1680059556
173,Cherdyn',60.403,56.4787,-7.89,86,6,1.75,RU,1680059556
174,Rincon,32.296,-81.2354,18.98,88,100,3.09,US,1680059359
175,Sistranda,63.7256,8.834,-6.02,66,0,6.46,NO,1680059557
176,Valparaíso,-33.0393,-71.6273,18.89,63,0,1.03,CL,1680059557
177,Husavik,66.0449,-17.3389,-5.77,84,100,5.15,IS,1680059558
178,Kaeo,-35.1,173.7833,18.51,49,1,4.77,NZ,1680059558
179,Menongue,-14.6585,17.691,16.96,95,66,1.16,AO,1680059558
180,Castle Rock,39.3722,-104.8561,4.38,51,43,0.89,US,1680059395
181,Russell,32.3502,-85.1999,17.78,59,0,5.14,US,1680059436
182,Channel-Port aux Basques,47.5702,-59.1367,1.04,76,100,3.51,CA,1680059559
183,Vila Velha,-20.3297,-40.2925,27.19,83,100,1.54,BR,1680059560
184,Murgab,37.4966,61.9714,14.93,67,0,4.12,TM,1680059560
185,Tiksi,71.6872,128.8694,-21.71,86,99,4.69,RU,1680059561
186,Sabha,27.0377,14.4283,15.51,53,0,8.49,LY,1680059561
187,Wanning,18.8003,110.3967,26.08,80,44,3.89,CN,1680059561
188,Punto Fijo,11.6956,-70.1996,25.13,82,76,11.05,VE,1680059562
189,Arraial do Cabo,-22.9661,-42.0278,24.76,80,100,3.34,BR,1680059562
190,Dutlwe,-23.9833,23.9,17.12,78,35,4.02,BW,1680059563
191,Saint George,37.1041,-113.5841,16.08,27,0,1.79,US,1680059403
192,Kapaa,22.0752,-159.319,25.99,84,75,5.14,US,1680059563
193,Ahipara,-35.1667,173.1667,17.29,47,28,7.7,NZ,1680059564
194,Byron Bay,-28.65,153.6167,23.17,89,100,5.07,AU,1680059564
195,Honningsvåg,70.9821,25.9704,-3.14,93,94,0.0,NO,1680059564
196,São Sebastião,-23.76,-45.4097,23.58,93,100,2.58,BR,1680059482
197,Tazovsky,67.4667,78.7,-17.85,97,100,2.62,RU,1680059565
198,Narsaq,60.9167,-46.05,-1.88,64,16,4.37,GL,1680059565
199,Tefé,-3.3542,-64.7114,22.81,98,97,0.3,BR,1680059566
200,Sabang,5.8933,95.3214,27.87,73,70,1.95,ID,1680059566
201,Necochea,-38.5473,-58.7368,21.29,77,100,2.69,AR,1680059567
202,Bogalusa,30.791,-89.8487,18.19,52,0,3.09,US,1680059567
203,Puerto Escondido,15.85,-97.0667,27.46,74,40,0.0,MX,1680059316
204,Winslow,35.0242,-110.6974,12.1,24,0,4.12,US,1680059568
205,Ukiah,39.1502,-123.2078,7.94,75,100,3.09,US,1680059398
206,San Quintín,30.4833,-115.95,13.94,78,0,4.8,MX,1680059569
207,Provideniya,64.3833,-173.3,-2.94,80,100,11.18,RU,1680059570
208,Bhagwantnagar,26.2333,80.75,27.46,24,0,2.74,IN,1680059571
209,Boca do Acre,-8.7522,-67.3978,22.58,97,85,0.64,BR,1680059571
210,Raja,8.4596,25.678,24.31,27,55,1.47,SS,1680059572
211,Bathsheba,13.2167,-59.5167,26.34,65,40,8.23,BB,1680059572
212,Muisne,0.6,-80.0333,25.94,77,70,1.41,EC,1680059384
213,Maceió,-9.6658,-35.7353,25.69,88,75,2.57,BR,1680059288
214,Tynda,55.1667,124.7167,-3.65,89,100,6.97,RU,1680059573
215,Hasaki,35.7333,140.8333,15.16,79,100,6.23,JP,1680059574
216,Fairview,40.8126,-73.999,8.47,47,0,4.12,US,1680059574
217,Sola,-13.8833,167.55,27.32,76,100,2.34,VU,1680059575
218,Cayenne,4.9333,-52.3333,23.02,100,100,0.0,GF,1680059575
219,Half Moon Bay,37.4636,-122.4286,10.46,85,100,4.63,US,1680059575
220,Samarai,-10.6167,150.6667,29.36,67,2,4.79,PG,1680059576
221,Murdochville,48.9583,-65.5006,-6.98,99,100,0.78,CA,1680059576
222,Kasongo-Lunda,-6.4667,16.8167,20.9,99,100,1.01,CD,1680059577
223,Scottsbluff,41.8666,-103.6672,3.77,47,20,2.06,US,1680059577
224,Huarmey,-10.0681,-78.1522,25.53,76,100,3.03,PE,1680059577
225,Coahuayana Viejo,18.7333,-103.6833,20.98,89,4,0.54,MX,1680059578
226,Ust-Maya,60.4167,134.5333,0.82,100,100,2.57,RU,1680059578
227,Qaqortoq,60.7167,-46.0333,-8.97,68,27,3.98,GL,1680059579
228,Poum,-20.2333,164.0167,26.51,76,100,3.84,NC,1680059401
229,Ponta do Sol,32.6667,-17.1,22.85,21,29,2.67,PT,1680059579
230,Saint Anthony,45.0205,-93.218,-3.22,73,0,7.72,US,1680059580
231,Gizo Government Station,-8.103,156.8419,28.68,73,100,2.5,SB,1680059580
232,Port-Gentil,-0.7193,8.7815,26.63,82,100,1.49,GA,1680059580
233,Pitanga,-24.7572,-51.7614,17.7,98,99,0.7,BR,1680059581
234,Solnechnyy,50.7214,136.6319,7.07,45,97,4.53,RU,1680059581
235,Yuci,37.6803,112.7319,16.86,25,0,1.0,CN,1680059581
236,Savinka,50.0785,47.0994,7.11,73,100,4.93,RU,1680059582
237,Oneonta,42.4529,-75.0638,1.23,77,79,0.99,US,1680059488
238,Waipawa,-41.4122,175.5153,9.49,72,97,11.18,NZ,1680059583
239,Leh,34.1667,77.5833,-4.84,75,66,0.26,IN,1680059583
240,San Andrés,12.5847,-81.7006,27.01,69,20,4.63,CO,1680059584
241,Tura,25.5198,90.2201,24.41,55,82,2.15,IN,1680059549
242,Porto Torres,40.835,8.3972,4.1,80,9,3.44,IT,1680059585
243,Assiniboia,49.6334,-105.9845,-17.52,94,7,2.85,CA,1680059585
244,Dalby,-27.1833,151.2667,22.08,83,100,4.59,AU,1680059586
245,Bom Sucesso,-21.0331,-44.7581,18.29,97,100,1.94,BR,1680059586
246,Belz,47.6751,-3.168,12.27,94,100,0.45,FR,1680059587
247,Chui,-33.6971,-53.4616,19.63,90,0,3.75,UY,1680059588
248,Stephenville,32.2207,-98.2023,11.19,59,100,0.0,US,1680059378
249,Pangnirtung,66.1451,-65.7125,-12.64,95,100,1.27,CA,1680059588
250,Isangel,-19.55,169.2667,28.09,73,59,3.58,VU,1680059589
251,Marzuq,14.4,46.4667,22.86,65,92,0.45,YE,1680059589
252,Novy Urengoy,66.0833,76.6333,-16.91,97,99,4.22,RU,1680059589
253,Ust'-Karsk,52.7011,118.8077,1.94,39,1,5.86,RU,1680059590
254,Yelizovo,53.1873,158.3805,2.08,47,20,7.15,RU,1680059367
255,Tsimmerbude,54.675,20.1347,-0.97,51,2,4.51,RU,1680059591
256,Kerema,-7.9631,145.7785,29.47,68,84,3.35,PG,1680059592
257,Kolpashevo,58.3131,82.9089,4.91,78,87,7.03,RU,1680059592
258,Fenton,42.7978,-83.7049,4.42,68,0,2.57,US,1680059592
259,Xihe,31.6864,113.4659,19.08,40,100,0.74,CN,1680059593
260,Esperance,-33.8667,121.9,20.01,57,22,2.43,AU,1680059593
261,Wanaka,-44.7,169.15,9.69,55,29,2.41,NZ,1680059594
262,Garoowe,8.4054,48.4845,23.76,78,93,3.12,SO,1680059594
263,Peniche,39.3558,-9.3811,16.36,67,5,4.81,PT,1680059595
264,Innisfail,-17.5333,146.0333,29.54,70,32,3.01,AU,1680059595
265,Fortuna,40.5982,-124.1573,7.19,91,100,4.02,US,1680059482
266,Camachile,14.6436,120.5808,33.06,64,100,2.72,PH,1680059596
267,Pemba,-12.974,40.5178,23.39,100,40,3.09,MZ,1680059597
268,Kahului,20.8947,-156.47,28.01,64,20,3.09,US,1680059597
269,Dothan,31.2232,-85.3905,19.11,95,20,3.6,US,1680059597
270,Upernavik,72.7868,-56.1549,-29.15,90,7,2.43,GL,1680059598
271,Dano,11.15,-3.0667,28.52,49,75,1.8,BF,1680059467
272,Langfang,39.5097,116.6947,19.88,21,0,1.01,CN,1680059599
273,Adiaké,5.2863,-3.304,25.89,88,45,2.31,CI,1680059600
274,Charter Township of Clinton,42.587,-82.9199,4.99,75,20,3.09,US,1680059538
275,Donskoye,45.4552,41.9741,10.07,92,100,1.65,RU,1680059601
276,San Patricio,28.017,-97.5169,21.92,58,98,6.13,US,1680059489
277,Tinogboc,12.0074,121.4122,26.66,80,100,10.76,PH,1680059602
278,Manggar,-2.8833,108.2667,29.15,68,100,2.33,ID,1680059603
279,Mackay,-21.15,149.2,33.16,69,76,2.65,AU,1680059603
280,Bela,25.9333,81.9833,28.2,23,0,2.19,IN,1680059389
281,Aksu,41.1231,80.2644,14.23,14,0,1.48,CN,1680059604
282,Auki,-8.7676,160.7034,27.8,80,100,0.4,SB,1680059604
283,Cockburn Town,21.4612,-71.1419,25.07,73,0,8.93,TC,1680059605
284,Juneau,58.3019,-134.4197,4.0,83,75,2.57,US,1680059605
285,Kailua,21.4022,-157.7394,26.99,75,75,6.17,US,1680059606
286,Chu,43.5983,73.7614,13.79,45,1,2.27,KZ,1680059606
287,Akureyri,65.6835,-18.0878,-7.32,95,100,2.06,IS,1680059606
288,Areia Branca,-4.9561,-37.1369,25.36,84,65,5.1,BR,1680059607
289,Guerrero Negro,27.9769,-114.0611,14.64,71,0,7.73,MX,1680059346
290,Meulaboh,4.1363,96.1285,28.14,71,40,0.59,ID,1680059607
291,Tautira,-17.7333,-149.15,27.72,75,89,3.12,PF,1680059608
292,Severo-Kuril'sk,50.6789,156.125,0.02,79,21,4.99,RU,1680059608
293,Constitución,-35.3333,-72.4167,12.06,84,27,4.71,CL,1680059609
294,Troitsko-Pechorsk,62.7084,56.1964,-14.41,97,56,1.65,RU,1680059609
295,Lata,40.1629,-8.3327,12.82,64,20,1.84,PT,1680059610
296,Kovernino,57.1253,43.8142,-0.63,92,93,5.44,RU,1680059610
297,Llandrindod Wells,52.2416,-3.3787,9.97,96,100,2.67,GB,1680059610
298,Surab,28.4914,66.2585,11.36,80,81,4.71,PK,1680059611
299,Nhulunbuy,-12.2333,136.7667,30.34,66,75,5.14,AU,1680059611
300,Erzurum Province,40.0,41.5,4.82,65,68,2.49,TR,1680059611
301,Adrar,20.5022,-10.0711,24.13,9,1,3.99,MR,1680059612
302,La Ronge,55.1001,-105.2842,-17.17,97,51,2.01,CA,1680059612
303,Meadow Lake,34.8014,-106.5436,10.62,20,34,5.47,US,1680059612
304,Sinjār,36.3209,41.8754,12.51,61,0,3.45,IQ,1680059614
305,Kruisfontein,-34.0033,24.7314,16.6,84,50,7.16,ZA,1680059615
306,Mutoko,-17.397,32.2268,12.18,96,31,0.89,ZW,1680059615
307,Paredon,16.0333,-93.8667,27.83,69,10,2.1,MX,1680059615
308,Okhotsk,59.3833,143.3,-5.01,87,100,3.1,RU,1680059616
309,Neuquén,-38.9516,-68.0591,15.94,33,0,7.2,AR,1680059616
310,Laguna,38.421,-121.4238,9.05,91,75,4.12,US,1680059617
311,Flinders,-34.5833,150.8552,22.25,89,56,1.79,AU,1680059617
312,Kazygurt,41.7589,69.3864,17.61,42,100,2.26,KZ,1680059617
313,Ancud,-41.8697,-73.8203,7.81,68,54,3.14,CL,1680059618
314,Rock Springs,41.5875,-109.2029,-2.31,71,0,3.6,US,1680059558
315,Mugur-Aksy,50.35,90.5,2.4,33,0,1.58,RU,1680059618
316,Tiptūr,13.2586,76.4783,26.64,44,36,4.4,IN,1680059619
317,Pontianak,-0.0333,109.3333,28.99,79,40,2.57,ID,1680059619
318,Pointe Michel,15.25,-61.3833,25.16,73,28,7.41,DM,1680059620
319,Kumul,42.8,93.45,17.65,11,1,3.32,CN,1680059620
320,Vao,-22.6667,167.4833,24.94,77,87,6.51,NC,1680059620
321,Ugoofaaru,5.6667,73.0,27.33,72,50,1.53,MV,1680059621
322,Lukulu,-14.3707,23.242,18.44,93,73,2.24,ZM,1680059621
323,Gijang,35.2442,129.2139,14.61,49,55,2.97,KR,1680059622
324,Gunnedah,-30.9833,150.25,25.39,60,44,9.3,AU,1680059622
325,Boyolangu,-8.1181,111.8935,29.68,66,96,0.64,ID,1680059622
326,Port Blair,11.6667,92.75,28.87,64,71,2.29,IN,1680059623
327,Itō,34.9667,139.0833,14.27,68,56,0.89,JP,1680059623
328,Beihai,21.4833,109.1,18.78,89,100,4.72,CN,1680059623
329,Moussoro,13.6408,16.4901,25.7,14,96,5.59,TD,1680059624
330,Amudat,1.95,34.95,19.87,79,97,0.89,UG,1680059625
331,Noumea,-22.2763,166.4572,29.99,71,96,5.52,NC,1680059511
332,Lazarev,52.225,141.5131,2.01,73,75,6.58,RU,1680059626
333,Boueni,-12.9025,45.0761,25.99,72,100,0.28,YT,1680059626
334,Mount Isa,-20.7333,139.5,32.87,35,100,5.66,AU,1680059627
335,Rawson,-43.3002,-65.1023,13.09,40,90,14.67,AR,1680059450
336,Black Forest,39.0131,-104.7008,3.94,24,0,1.34,US,1680059628
337,Dingle,10.9995,122.6711,30.29,63,100,6.23,PH,1680059628
338,Beloha,-25.1667,45.05,16.28,77,0,2.73,MG,1680059628
339,Río Gallegos,-51.6226,-69.2181,1.03,75,0,6.69,AR,1680059629
340,Buy,58.4786,41.53,0.09,92,86,5.67,RU,1680059438
341,Airai,-8.9266,125.4092,21.53,71,81,1.21,TL,1680059630
342,Ponta Delgada,37.7333,-25.6667,15.4,82,20,10.29,PT,1680059368
343,Hammerfest,70.6634,23.6821,-7.75,86,0,1.03,NO,1680059631
344,Halifax,44.6453,-63.5724,0.82,77,17,0.45,CA,1680059516
345,Dandong,40.1292,124.3947,11.61,44,99,7.4,CN,1680059632
346,Talara,-4.5772,-81.2719,27.24,76,100,5.29,PE,1680059632
347,Kidal,18.4411,1.4078,23.37,8,13,4.85,ML,1680059633
348,Shenjiamen,29.9576,122.298,12.3,79,100,3.31,CN,1680059633
349,Lexington,37.9887,-84.4777,5.19,68,0,2.57,US,1680059542
350,Linköping,58.4109,15.6216,-2.01,65,100,2.06,SE,1680059507
351,Kaputa,-8.4689,29.6619,19.77,89,98,0.2,ZM,1680059635
352,Tommot,58.9564,126.2925,-2.73,95,100,5.52,RU,1680059635
353,Mawlaik,23.6333,94.4167,29.03,37,0,0.9,MM,1680059635
354,Mount Gambier,-37.8333,140.7667,16.74,61,81,4.88,AU,1680059636
355,Yangi Marg`ilon,40.4272,71.7189,16.4,41,90,2.06,UZ,1680059636
356,Winchester,51.0651,-1.3187,10.29,93,100,2.57,GB,1680059055
357,Chālūs,36.655,51.4204,15.98,69,0,2.91,IR,1680059637
358,Flin Flon,54.7682,-101.865,-13.67,97,99,2.47,CA,1680059637
359,Khasan,42.4308,130.6434,7.7,55,0,3.62,RU,1680059638
360,Batagay-Alyta,67.8006,130.4114,-17.46,84,51,1.87,RU,1680059638
361,Saint-François,46.4154,3.9054,3.15,91,94,1.66,FR,1680059638
362,Buala,-8.145,159.5921,28.68,76,87,1.57,SB,1680059639
363,Changji,44.0167,87.3167,11.44,43,0,2.0,CN,1680059639
364,Tagusao,9.1924,117.8141,29.07,65,97,3.5,PH,1680059639
365,Ampanihy,-24.7,44.75,15.54,79,0,3.05,MG,1680059640
366,Mossamedes,-15.1961,12.1522,23.23,87,90,2.92,AO,1680059640
367,Batemans Bay,-35.7167,150.1833,21.17,55,96,2.89,AU,1680059640
368,Concordia,-31.393,-58.0209,23.21,74,0,1.79,AR,1680059386
369,Norman Wells,65.282,-126.8329,-5.06,81,55,4.75,CA,1680059642
370,Korla,41.7597,86.1469,14.71,17,5,1.65,CN,1680059643
371,Thinadhoo,0.5333,72.9333,27.87,76,4,3.39,MV,1680059643
372,Quang Ngai,15.1167,108.8,28.11,73,70,2.06,VN,1680059643
373,São Filipe,14.8961,-24.4956,23.95,71,2,3.86,CV,1680059644
374,Plérin,48.5425,-2.7798,12.47,95,100,3.58,FR,1680059644
375,Forsytheganj,52.6333,29.7333,-2.55,95,100,8.68,BY,1680059645
376,Cidreira,-30.1811,-50.2056,22.96,86,2,8.83,BR,1680059387
377,Poreč,45.2258,13.5939,8.58,63,78,3.88,HR,1680059646
378,Litovko,49.2361,135.1742,7.03,55,13,4.01,RU,1680059647
379,Olavarría,-36.8927,-60.3225,21.55,56,0,5.59,AR,1680059647
380,Bose,45.4612,8.0137,6.78,58,14,1.32,IT,1680059648
381,Ngunguru,-35.6167,174.5,17.4,40,5,6.2,NZ,1680059648
382,Nouadhibou,20.931,-17.0347,17.99,88,3,5.14,MR,1680059649
383,Tamasane,-22.4184,27.4013,13.91,84,14,1.79,BW,1680059649
384,Saint-Augustin,51.226,-58.6502,0.21,93,100,1.24,CA,1680059650
385,Ponazyrevo,58.3578,46.3142,-0.13,79,100,3.65,RU,1680059650
386,Port Macquarie,-31.4333,152.9167,24.38,69,79,4.92,AU,1680059651
387,Nizwá,22.9333,57.5333,21.58,46,0,1.77,OM,1680059651
388,Mazagão,-0.115,-51.2894,25.03,97,100,1.15,BR,1680059652
389,Rāvar,31.2656,56.8055,15.38,44,3,1.75,IR,1680059652
390,Nishihara,26.1842,127.7558,22.81,73,100,6.17,JP,1680059653
391,Port Hueneme,34.1478,-119.1951,14.93,77,75,2.57,US,1680059605
392,Tessalit,20.1986,1.0114,23.4,8,1,4.35,ML,1680059654
393,Kushima,31.4583,131.2333,17.87,47,100,2.55,JP,1680059654
394,Osakarovka,50.565,72.5692,2.59,65,0,2.47,KZ,1680059655
395,Korbous,36.8167,10.5687,8.02,76,3,1.06,TN,1680059655
396,Pacifica,37.6138,-122.4869,10.36,85,100,10.73,US,1680059644
397,Diamantino,-14.4086,-56.4461,23.07,90,20,1.94,BR,1680059656
398,Esmeralda,21.8525,-78.1169,24.92,73,96,2.28,CU,1680059657
399,Lagan,45.3929,47.3707,8.19,82,0,4.49,RU,1680059658
400,Kingsland,30.8,-81.6898,19.98,97,100,1.56,US,1680059182
401,Narok,-1.0783,35.8601,13.46,93,89,1.44,KE,1680059659
402,Vostok,46.4856,135.8833,7.1,40,9,4.38,RU,1680059659
403,Okitipupa,6.5047,4.7839,24.81,93,100,0.27,NG,1680059660
404,Kununurra,-15.7667,128.7333,33.99,43,96,2.06,AU,1680059660
405,Huilong,31.8111,121.655,14.27,55,99,5.27,CN,1680059661
406,Santana,-0.0583,-51.1817,25.1,94,75,2.57,BR,1680059661
407,Nome,64.5011,-165.4064,-7.96,93,100,7.72,US,1680059662
408,Marsá Maţrūḩ,31.3525,27.2453,15.12,62,0,10.46,EG,1680059662
409,Lorengau,-2.0226,147.2712,29.51,66,49,1.45,PG,1680059663
410,Helong,42.5397,128.9972,14.69,24,0,2.75,CN,1680059663
411,Leningradskiy,69.3833,178.4167,-8.03,82,2,3.35,RU,1680059664
412,Pantelhó,16.9333,-92.55,15.98,76,10,0.91,MX,1680059664
413,Umluj,25.0213,37.2685,22.11,45,0,4.78,SA,1680059664
414,Arrecife,28.963,-13.5477,20.99,46,0,3.09,ES,1680059665
415,Opuwo,-18.0607,13.84,18.31,81,71,1.07,NA,1680059665
416,Bourail,-21.5667,165.4833,28.54,60,96,4.02,NC,1680059666
417,Port Hedland,-20.3167,118.5667,33.03,58,75,4.63,AU,1680059666
418,Eyl,7.9803,49.8164,26.51,79,93,1.15,SO,1680059666
419,Tual,-5.6667,132.75,27.49,79,92,5.73,ID,1680059667
420,Lompoc,34.6391,-120.4579,11.96,83,100,12.07,US,1680059539
421,Rypefjord,70.6333,23.6667,-7.74,86,0,1.03,NO,1680059667
422,Bien Hoa,10.95,106.8167,30.99,49,26,2.5,VN,1680059668
423,Goderich,43.7501,-81.7165,3.28,71,49,5.37,CA,1680059639
424,Kavaratti,10.5669,72.642,26.92,73,28,2.96,IN,1680059668
425,Celestún,20.8667,-90.4,25.73,84,9,7.67,MX,1680059669
426,Itaituba,-4.2761,-55.9836,22.68,98,43,0.6,BR,1680059669
427,Chabahar,25.2919,60.643,23.41,60,0,6.73,IR,1680059670
428,Akdepe,42.0551,59.3788,14.05,44,59,3.26,TM,1680059671
429,Vardø,70.3705,31.1107,-2.01,64,100,3.09,NO,1680059671
430,Mehamn,71.0357,27.8492,-4.05,79,0,1.03,NO,1680059615
431,Aleksandrov Gay,50.147,48.5704,6.37,78,100,4.15,RU,1680059672
432,Venado Tuerto,-33.7456,-61.9688,19.99,65,0,4.51,AR,1680059672
433,Nemuro,43.3236,145.575,3.45,80,17,5.79,JP,1680059673
434,Whitley Bay,55.0397,-1.4471,10.32,94,20,1.54,GB,1680059673
435,Winnemucca,40.973,-117.7357,2.03,87,100,4.63,US,1680059673
436,Cairns,-16.9167,145.7667,31.73,75,31,4.63,AU,1680059674
437,Itumbiara,-18.4192,-49.2153,21.12,84,99,1.32,BR,1680059453
438,Sawtell,-30.3833,153.1,23.44,78,100,8.23,AU,1680059675
439,Chippenham,51.46,-2.1247,10.66,98,100,4.05,GB,1680059675
440,Salalah,17.0151,54.0924,28.05,83,75,2.06,OM,1680059398
441,Tuatapere,-46.1333,167.6833,12.76,49,11,4.59,NZ,1680059675
442,Berlevåg,70.8578,29.0864,-4.03,86,100,2.06,NO,1680059676
443,Klaksvík,62.2266,-6.589,4.51,75,100,12.96,FO,1680059676
444,Vanavara,60.34,102.2797,-5.74,93,100,3.47,RU,1680059677
445,Sechura,-5.5569,-80.8222,26.69,78,100,3.47,PE,1680059677
446,Ushtobe,45.2514,77.9838,13.35,28,0,1.37,KZ,1680059677
447,Rocha,-34.4833,-54.3333,16.13,94,0,3.14,UY,1680059678
448,Viedma,-40.8135,-62.9967,21.98,15,90,12.26,AR,1680059415
449,Chapais,49.7834,-74.8492,-12.47,96,71,1.24,CA,1680059678
450,Kashgar,39.4547,75.9797,15.27,17,68,0.95,CN,1680058916
451,Fuji,35.1667,138.6833,14.98,49,15,2.16,JP,1680059679
452,Kabare,-2.4683,28.8242,16.07,97,100,0.79,CD,1680059679
453,Zhuanghe,39.7008,122.9911,10.35,56,100,4.65,CN,1680059680
454,Cururupu,-1.8283,-44.8683,22.97,98,100,0.95,BR,1680059680
455,Egvekinot,66.3167,-179.1667,-6.25,94,100,2.48,RU,1680059681
456,Massaranduba,-7.2003,-35.7892,21.67,93,36,1.27,BR,1680059439
457,Garachiné,8.0647,-78.3628,25.25,84,35,3.92,PA,1680059681
458,Chilca,-12.5211,-76.7372,23.59,83,98,2.85,PE,1680059682
459,Prado,-17.3411,-39.2208,24.36,80,11,2.49,BR,1680059683
460,Beian,63.6559,9.5683,-1.66,58,0,3.6,NO,1680059683
461,Paita,-5.0892,-81.1144,26.57,79,99,4.92,PE,1680059683
462,Kuala Terengganu,5.3302,103.1408,28.89,68,23,0.81,MY,1680059255
463,Ballina,-28.8667,153.5667,23.21,88,100,4.18,AU,1680059684
464,Dhārchula,29.85,80.5333,18.9,26,41,0.96,IN,1680059684
465,Yulara,-25.2406,130.9889,28.91,38,77,5.82,AU,1680059685
466,Shirokiy,49.758,129.523,12.14,32,44,9.49,RU,1680059685
467,Port Shepstone,-30.7414,30.455,21.85,75,100,9.03,ZA,1680059685
468,Faya,18.3851,42.4509,11.29,47,18,1.3,SA,1680059686
469,Ewo,-0.8725,14.8206,22.25,93,100,2.45,CG,1680059470
470,Jinchang,38.4953,102.1739,10.87,19,9,2.12,CN,1680059686
471,Atambua,-9.1061,124.8925,27.66,69,57,0.45,ID,1680059687
472,Palkino,57.5409,28.0126,-2.14,71,100,4.56,RU,1680059687
473,Ják,47.1425,16.5815,0.66,70,92,2.36,HU,1680059687
474,Guozhen,34.3659,107.359,18.91,43,77,1.1,CN,1680059688
475,Karratha,-20.7377,116.8463,29.18,63,100,1.94,AU,1680059450
476,La Unión,-5.4,-80.75,26.87,77,100,4.33,PE,1680059688
477,Porto-Novo,6.4965,2.6036,26.72,85,84,2.14,BJ,1680059417
478,Malakal,9.5334,31.6605,26.14,17,51,1.79,SS,1680059689
479,Distrikt Brokopondo,4.75,-55.1667,23.6,90,87,3.15,SR,1680059689
480,Pauini,-7.7136,-66.9764,22.57,99,98,1.12,BR,1680059690
481,Harper,4.375,-7.7169,26.23,87,3,2.38,LR,1680059690
482,Comodoro Rivadavia,-45.8667,-67.5,6.92,49,0,8.75,AR,1680059690
483,Tambacounda,13.7539,-13.7586,28.0,11,41,2.82,SN,1680059691
484,Burnie,-41.0667,145.9167,18.3,74,100,4.79,AU,1680059428
485,San Jose,37.3394,-121.895,9.97,82,75,2.06,US,1680059024
486,Jalor,25.35,72.6167,25.21,38,39,1.34,IN,1680059692
487,Shubarkuduk,49.1447,56.4872,7.69,93,69,2.41,KZ,1680059692
488,Brae,60.3964,-1.353,4.23,72,100,7.25,GB,1680059692
489,Caracollo,-14.9165,-70.6603,7.01,89,97,1.1,PE,1680059693
490,Maumere,-8.6199,122.2111,29.01,68,32,0.43,ID,1680059693
491,Māngrol,21.1167,70.1167,24.4,67,0,3.13,IN,1680059693
492,Huainan,32.6264,116.9969,17.9,44,72,3.99,CN,1680059694
493,Madang,-5.2246,145.7966,30.9,59,45,3.57,PG,1680059694
494,São Geraldo do Araguaia,-6.4006,-48.555,22.51,98,100,1.57,BR,1680059695
495,Humaitá,-7.5061,-63.0208,22.92,95,100,0.68,BR,1680059695
496,Kudahuvadhoo,2.6708,72.8944,27.84,74,100,1.43,MV,1680059695
497,Nguruka,-5.1092,31.0419,17.72,98,100,0.97,TZ,1680059695
498,Misratah,32.3754,15.0925,15.47,61,38,4.03,LY,1680059696
499,Taoudenni,22.6783,-3.9836,29.14,14,19,6.18,ML,1680059697
500,Dekar,-21.5333,21.9333,17.59,82,8,3.45,BW,1680059470
501,Bismarck,46.8083,-100.7837,-11.09,67,20,2.57,US,1680059697
502,Dafeng,23.4517,108.5881,15.84,88,100,0.78,CN,1680059444
503,Kiunga,-6.1219,141.2906,32.2,56,100,1.44,PG,1680059698
504,Karpogory,64.0019,44.4451,-11.04,92,100,2.73,RU,1680059698
505,Ola,59.5833,151.2833,-6.03,85,100,2.91,RU,1680059699
506,Porteirinha,-15.7433,-43.0283,22.14,48,99,3.32,BR,1680059699
507,Lincoln,40.8,-96.667,5.07,54,0,0.0,US,1680059196
508,Riyadh,24.6877,46.7219,15.08,30,0,2.05,SA,1680059414
509,Bagdarin,54.4333,113.6,0.5,22,36,3.79,RU,1680059700
510,Khani,41.9563,42.9566,5.76,80,20,1.77,GE,1680059701
511,Warmbad,-28.45,18.7333,15.49,41,0,2.98,NA,1680059701
512,Shāhgarh,24.3167,79.1333,27.95,20,0,3.42,IN,1680059357
513,Casablanca,33.5928,-7.6192,17.96,82,5,1.79,MA,1680059667
514,Krasnyy Yar,46.5331,48.3456,4.96,77,89,3.45,RU,1680059702
515,Dobre Miasto,53.9867,20.3975,-3.28,73,3,3.45,PL,1680059703
516,Verāval,20.9,70.3667,24.53,66,0,3.1,IN,1680059703
517,Manavālakurichi,8.1333,77.3,28.66,71,73,1.81,IN,1680059451
518,Quesnel,52.9999,-122.5029,-1.9,95,13,0.95,CA,1680059704
519,Westport,41.1415,-73.3579,7.33,60,0,1.79,US,1680059417
520,Bilma,18.6853,12.9164,22.56,17,7,2.22,NE,1680059705
521,Angoram,-4.0625,144.0661,34.47,48,100,0.22,PG,1680059705
522,Hue,16.4667,107.6,23.06,83,75,3.09,VN,1680059706
523,Ranau,5.9538,116.6641,28.74,57,100,1.33,MY,1680059706
524,Ucluelet,48.9329,-125.5528,8.3,67,10,2.98,CA,1680059706
525,Greenwood,34.1668,-82.1165,17.09,60,20,1.54,US,1680059311
526,Mendi,-6.1761,143.6513,21.41,60,79,2.2,PG,1680059707
527,Poya,-21.35,165.15,28.48,64,92,3.9,NC,1680059707
528,Broome,42.2506,-75.833,2.23,83,0,1.54,US,1680059708
529,Uglovskoye,51.3557,80.1942,6.12,71,1,3.9,RU,1680059708
530,Hurghada,27.2574,33.8129,21.35,31,0,6.09,EG,1680059709
531,Pierre,44.3683,-100.351,-5.49,62,20,5.14,US,1680059515
532,Matara,5.9485,80.5353,27.5,75,81,1.74,LK,1680059709
533,Harwich,51.9419,1.2844,9.24,90,100,4.05,GB,1680059710
534,Mokhsogollokh,61.4681,128.9203,-3.96,90,100,3.14,RU,1680059710
535,Nālūt,30.3333,10.85,12.5,62,52,8.89,LY,1680059711
536,Labuhan,-6.8844,112.2051,29.81,68,92,1.09,ID,1680059711
537,Maniitsoq,65.4167,-52.9,-11.65,72,19,3.35,GL,1680059414
538,Warri,5.5167,5.75,24.7,90,100,1.11,NG,1680059193
539,Pisco,-13.7,-76.2167,23.03,88,0,4.63,PE,1680059687
540,Otane,-39.8833,176.6333,15.01,66,72,7.33,NZ,1680059713
541,Marystown,47.1666,-55.1483,-0.83,88,87,4.56,CA,1680059713
542,Wuchang,44.9143,127.15,14.16,25,3,7.32,CN,1680059714
543,Porbandar,21.6422,69.6093,23.96,69,0,2.59,IN,1680059714
544,Bowen,-20.0167,148.2333,27.98,71,60,4.32,AU,1680059714
545,Itarema,-2.9248,-39.9167,24.11,89,89,2.68,BR,1680059715
546,Broken Hill,-31.95,141.4333,22.93,37,0,6.48,AU,1680059715
547,Mt. Pleasant,32.7941,-79.8626,17.36,97,0,0.45,US,1680059394
548,Yima,34.7381,111.8839,18.0,35,67,2.64,CN,1680059716
549,Jagüey Grande,22.5269,-81.1286,24.48,70,98,2.16,CU,1680059716
550,Włoszczowa,50.8526,19.9659,-0.89,55,0,3.16,PL,1680059716
